longitude,latitude,address,n
119.9783,38.23563,"33915 LELAND MEADOW RD ,STRAWBERRY,CA,95375",1
119.97752,38.234703,"33966 LELAND MEADOW RD ,STRAWBERRY,CA,95375",2
120.13843,38.087181,"25686 UPPER SCENIC DR ,,CA,95212",3
120.16924,38.077599,"25120 STATE HIGHWAY 108 ,MI WUK VILLAGE,CA,95346",4
120.1727,38.073524,"21173 LODESTONE AVE ,,CA,95346",5
120.41635,37.99334,"20445 SUNNY RIDGE LN ,SONORA,CA,95370",6
120.40732,37.98391,"19970 ROUGH AND READY TRL ,SONORA,CA,95370",7
120.4115,37.982452,"19831 ROUGH AND READY TRL ,SONORA,CA,95370",8
120.40759,37.981644,"19907 ROUGH AND READY TRL ,SONORA,CA,95370",9
120.40833,37.980976,"19889 PANORAMA PL S ,SONORA,CA,95370",10
120.43241,37.97757,"19589 PEPPERMINT FALLS RD ,JAMESTOWN,CA,95327",11
120.40479,37.990932,"11065 RACETRACK RD ,SONORA,CA,95370",12
120.40345,37.989887,"11070 HARRISON DR ,SONORA,CA,95370",13
120.40313,37.989075,"11037 HARRISON DR ,SONORA,CA,95370",14
120.40283,37.98922,"11034 HARRISON DR ,SONORA,CA,95370",15
120.4017,37.987961,"20135 LELAND DR ,SONORA,CA,95370",16
120.40257,37.987247,"20112 SHAWNEE DR ,SONORA,CA,95370",17
120.4293,38.001732,"9996 HIGHWAY 49 ,SONORA,CA,95370",18
120.40314,37.985241,"20045 GIBBS DR ,SONORA,CA,95370",19
120.40125,37.985405,"11175 REDBUD RD ,SONORA,CA,95370",20
120.40124,37.991394,"11209 RACETRACK RD ,SONORA,CA,95370",21
120.4016,37.990837,"11226 COOPERS CT ,SONORA,CA,95370",22
120.43323,37.975941,"19477 PEPPERMINT FALLS RD ,JAMESTOWN,CA,95327",23
120.40364,37.982681,"19849 VILLA DR ,SONORA,CA,95370",24
120.42779,37.942562,"17600 ROLLING HILLS BLVD ,JAMESTOWN,CA,95327",25
120.42714,37.942474,"10060 FALLEN LEAF DR ,JAMESTOWN,CA,95327",26
120.42551,37.942627,"10161 FALLEN LEAF DR ,JAMESTOWN,CA,95327",27
120.37489,37.855312,"12784 JACKSONVILLE RD ,JAMESTOWN,CA,95327",28
120.16976,37.881069,"14010 CLEMENTS RD ,GROVELAND,CA,95321",29
120.19463,37.769585,"7897 JACKASS CREEK RD ,,CA,95311",30
120.2223,37.840004,"12000 HOMESTEAD RD ,GROVELAND,CA,95321",31
120.20825,37.807526,"10110 YOSEMITE SPRINGS RD ,GROVELAND,CA,95321",32
120.18871,37.773609,"5795 CUNEO RD ,COULTERVILLE,CA,95311",33
120.14361,37.844513,"22537 PROSPECT HTS ,GROVELAND,CA,95321",34
120.14129,37.845264,"22550 HIDDEN HOLLOW DR ,GROVELAND,CA,95321",35
119.96446,37.825691,"30350 SAWMILL MOUNTAIN RD ,GROVELAND,CA,95321",36
120.36208,37.685276,"12952 BONDS FLAT RD ,LA GRANGE,CA,95329",37
120.32439,37.727291,"14550 AZUCENA CT ,COULTERVILLE,CA,95311",38
120.33489,37.74876,"14141 SUNSET OAKS DR ,COULTERVILLE,CA,95311",39
120.22249,37.852539,"19080 DYER CT ,GROVELAND,CA,95321",40
120.22099,37.85339,"19166 DYER CT ,GROVELAND,CA,95321",41
120.22389,37.852257,"19011 DYER CT ,GROVELAND,CA,95321",42
120.20905,37.842216,"12091 ALCAN CT ,GROVELAND,CA,95321",43
120.17931,37.842258,"20793 NONPAREIL WAY ,GROVELAND,CA,95321",44
120.17036,37.841579,"20876 MCKINLEY WAY ,GROVELAND,CA,95321",45
120.20187,37.847305,"19844 PINE MOUNTAIN DR ,GROVELAND,CA,95321",46
120.19765,37.845608,"19908 PINE MOUNTAIN DR ,GROVELAND,CA,95321",47
120.2013,37.845165,"19877 PINE MOUNTAIN DR ,GROVELAND,CA,95321",48
120.20063,37.843742,"12081 BRECKENRIDGE RD ,GROVELAND,CA,95321",49
120.19723,37.844017,"19933 PINE MOUNTAIN DR ,GROVELAND,CA,95321",50
120.19603,37.843174,"19950 RIDGECREST WAY ,GROVELAND,CA,95321",51
120.19725,37.843624,"12003 BRECKENRIDGE RD ,GROVELAND,CA,95321",52
120.19544,37.841934,"20318 LITTLE VALLEY RD ,GROVELAND,CA,95321",53
120.19672,37.841492,"20267 LITTLE VALLEY RD ,GROVELAND,CA,95321",54
120.19199,37.843102,"20048 RIDGECREST WAY ,GROVELAND,CA,95321",55
120.19199,37.84124,"20023 PINE MOUNTAIN DR ,GROVELAND,CA,95321",56
120.21779,37.855877,"19312 TIGER CT ,GROVELAND,CA,95321",57
120.30205,38.050468,"15700 OLD OAK RANCH RD ,SONORA,CA,95370",58
120.22005,37.851818,"12500 FOUNTAIN CT ,GROVELAND,CA,95321",59
120.23405,37.966228,"18330 WARDS FERRY RD 80,SONORA,CA,95370",60
120.38132,37.979248,"440 S WASHINGTON ST ,SONORA,CA,95370",61
120.41711,37.953281,"18188 6TH AVE ,JAMESTOWN,CA,95327",62
120.41449,38.037731,"10610 N AIRPORT RD ,COLUMBIA,CA,95310",63
120.18611,38.056953,"24008 LAMA RD ,,CA,95346",64
120.1859,38.056599,"20668 HEKEKE LN ,MI WUK VILLAGE,CA,95346",65
120.18346,38.057728,"20772 HEKEKE LN ,MI WUK VILLAGE,CA,95346",66
120.1843,38.056805,"20725 HEKEKE LN ,,CA,95346",67
120.18412,38.056526,"20736 TELELE TRL ,MI WUK VILLAGE,CA,95346",68
120.1847,38.056023,"20711 TELELE TRL ,MI WUK VILLAGE,CA,95346",69
120.18183,38.057961,"20823 TELELE CT ,MI WUK VILLAGE,CA,95346",70
120.18259,38.056461,"20809 TELELE TRL ,MI WUK VILLAGE,CA,95346",71
120.17916,38.056866,"20993 LAMA ROAD TEUMETE ,,CA,95346",72
120.17679,38.057316,"24013 LAMA ROAD HISUM ,,CA,95126",73
120.1786,38.057034,"20992 LAMA ROAD TEUMETE ,MI WUK VILLAGE,CA,95346",74
120.17553,38.05732,"21118 LAKE RD ,LA GRANGE,CA,95329",75
120.23437,38.031914,"22629 TWAIN HARTE DR ,TWAIN HARTE,CA,95383",76
120.23166,38.031143,"22567 SPRUCE DR ,TWAIN HARTE,CA,95383",77
120.22688,38.032528,"22631 CEDAR PINES AVE ,TWAIN HARTE,CA,95383",78
120.22977,38.030796,"18746 THAYER CT ,TWAIN HARTE,CA,95383",79
120.23005,38.030991,"22536 CEDAR PINES AVE ,TWAIN HARTE,CA,95383",80
120.22932,38.031612,"22590 CEDAR PINES AVE ,TWAIN HARTE,CA,95383",81
120.22961,38.030914,"22569 CEDAR PINES AVE ,TWAIN HARTE,CA,95383",82
120.22701,38.040073,"18853 MANZANITA DR A,TWAIN HARTE,CA,95383",83
120.23405,38.031139,"18550 WOODWARDIA RD ,TWAIN HARTE,CA,95383",84
120.24221,38.031067,"22514 GOLF CLUB DR ,TWAIN HARTE,CA,95383",85
120.24162,38.030739,"22541 GOLF CLUB DR ,TWAIN HARTE,CA,95383",86
120.24016,38.030949,"22585 GOLF CLUB DR ,TWAIN HARTE,CA,95383",87
120.2391,38.028622,"22354 PONDEROSA DR ,TWAIN HARTE,CA,95383",88
120.23627,38.029675,"22466 PONDEROSA DR ,TWAIN HARTE,CA,95383",89
120.2375,38.029125,"22435 PONDEROSA DR ,TWAIN HARTE,CA,95383",90
120.23638,38.029438,"22479 PONDEROSA DR ,TWAIN HARTE,CA,95383",91
120.23392,38.031223,"18563 WOODWARDIA RD ,TWAIN HARTE,CA,95383",92
120.22062,37.861416,"13121 MOHRMANN ST ,GROVELAND,CA,95321",93
120.21683,37.860558,"12968 MUELLER DR ,GROVELAND,CA,95321",94
120.2188,37.861347,"13016 MUELLER DR ,GROVELAND,CA,95321",95
120.21705,37.864143,"13275 WELLS FARGO DR ,GROVELAND,CA,95321",96
120.21729,37.863216,"19365 JAMES CIR ,GROVELAND,CA,95321",97
120.21397,37.861786,"13133 WELLS FARGO DR ,GROVELAND,CA,95321",98
120.27851,38.011745,"16610 S CREEKSIDE DR ,SONORA,CA,95370",99
120.30428,38.010727,"15400 PASEO DE LOS ROBLES RD ,SONORA,CA,95370",100
120.30796,38.013496,"15346 POCO CALLE DR ,SONORA,CA,95370",101
120.30614,38.013279,"15386 POCO CALLE DR ,SONORA,CA,95370",102
120.30543,38.013062,"15480 PASEO DE LOS ROBLES RD ,SONORA,CA,95370",103
120.30523,38.012836,"15481 PASEO DE LOS ROBLES RD ,SONORA,CA,95370",104
120.30463,38.014778,"21638 PASEO DE LOS PORTALES RD ,SONORA,CA,95370",105
120.30193,38.01572,"15520 BUENA VISTA AVENIDA ,SONORA,CA,95370",106
120.30396,38.015141,"21675 PASEO DE LOS PORTALES RD ,SONORA,CA,95370",107
120.30438,38.014221,"15516 PASEO DE LOS ROBLES RD ,SONORA,CA,95370",108
120.31281,38.020126,"21980 MONTGOMERY RD ,SONORA,CA,95370",109
120.31165,38.021648,"22028 MONTGOMERY RD ,SONORA,CA,95370",110
120.30709,38.019199,"15342 EL VENADA TRL ,SONORA,CA,95370",111
120.30823,38.018517,"21854 EL OSO WAY ,SONORA,CA,95370",112
120.30497,38.019005,"15427 EL VENADA TRL ,SONORA,CA,95370",113
120.30668,38.016808,"21770 EL OSO WAY ,SONORA,CA,95370",114
120.30706,38.017811,"21813 EL OSO WAY ,SONORA,CA,95370",115
120.22736,37.860943,"19307 FERRETTI RD ,GROVELAND,CA,95321",116
120.19318,37.859947,"13051 BOITANO RD ,GROVELAND,CA,95321",117
120.1821,37.857738,"12926 GREEN VALLEY CIR ,GROVELAND,CA,95321",118
120.40858,37.997005,"10872 MARTIN TERRACE CT ,SONORA,CA,95370",119
120.40871,37.995953,"10854 COUNTRYSIDE CT ,SONORA,CA,95370",120
120.26733,38.0037,"17027 RED HEATHER DR ,SONORA,CA,95370",121
120.26867,38.003315,"17000 RED HEATHER DR ,SONORA,CA,95370",122
120.27106,37.991226,"20182 MOYLE DR ,SONORA,CA,95370",123
120.43797,37.938595,"17410 STATE HIGHWAY 108 ,JAMESTOWN,CA,95327",124
120.43016,37.972794,"10155 PEPPERMINT CIR ,JAMESTOWN,CA,95327",125
120.42858,37.971069,"10155 PEPPERMINT CIR 19,JAMESTOWN,CA,95327",126
120.42426,37.972866,"10155 PEPPERMINT CIR 73,JAMESTOWN,CA,95327",127
120.42519,37.971943,"10155 PEPPERMINT CIR 88,JAMESTOWN,CA,95327",128
120.47163,37.949944,"8400 OLD MELONES RD 78,JAMESTOWN,CA,95327",129
120.47307,37.948345,"8400 OLD MELONES RD 35,JAMESTOWN,CA,95327",130
120.39206,37.995155,"20500 SHAWS FLAT RD ,SONORA,CA,95370",131
120.3905,37.987625,"437 CALAVERAS WAY ,SONORA,CA,95370",132
120.39411,37.990692,"600 ARBONA CIR N ,SONORA,CA,95370",133
120.266,38.051571,"23620 KEWIN MILL RD ,SONORA,CA,95370",134
120.25658,38.037426,"22854 MIDDLE CAMP RD ,TWAIN HARTE,CA,95383",135
120.24731,38.044125,"23226 MIDDLE CAMP RD ,TWAIN HARTE,CA,95383",136
120.24828,38.045456,"17925 BLUEJAY CT ,TWAIN HARTE,CA,95383",137
120.24864,38.043739,"17884 LARK DR ,TWAIN HARTE,CA,95383",138
120.25294,38.044243,"23216 HAWK LN ,TWAIN HARTE,CA,95383",139
120.25311,38.04549,"23263 HAWK LN ,TWAIN HARTE,CA,95383",140
120.24924,38.045444,"17867 ROBIN RD ,TWAIN HARTE,CA,95383",141
120.25132,38.044086,"17789 LARK DR ,TWAIN HARTE,CA,95383",142
120.2526,38.043419,"23111 WREN HOLLOW CT ,TWAIN HARTE,CA,95383",143
120.25559,38.041115,"23030 MIDDLE CAMP RD ,TWAIN HARTE,CA,95383",144
120.39827,38.035515,"22811 BIGLER ST ,COLUMBIA,CA,95310",145
120.40369,38.030144,"22430 CHURCH LN ,COLUMBIA,CA,95310",146
120.4032,38.029133,"22441 CHURCH LN ,COLUMBIA,CA,95310",147
120.23134,37.950035,"18760 PROVIDENCE MINE RD ,TUOLUMNE,CA,95379",148
120.24086,37.954975,"18310 YOSEMITE RD ,TUOLUMNE,CA,95379",149
120.36835,37.861565,"13199 HARNEY DR ,JAMESTOWN,CA,95327",150
120.34667,37.718582,"5190 ARBOLADA DR ,LA GRANGE,CA,95329",151
120.34333,37.720154,"5308 ENRAMADA DR ,LA GRANGE,CA,95329",152
120.34808,37.714394,"13580 COLINA WAY ,LA GRANGE,CA,95329",153
120.34769,37.714218,"13595 COLINA WAY ,LA GRANGE,CA,95329",154
120.35137,37.713142,"13417 SALINAS ST ,LA GRANGE,CA,95329",155
120.34444,37.711666,"4861 ARBOLADA DR ,LA GRANGE,CA,95329",156
120.34948,37.708351,"13530 CANADA ST ,LA GRANGE,CA,95329",157
120.34209,37.708233,"4577 MADRESELVA ST ,LA GRANGE,CA,95329",158
120.33982,37.704971,"4423 MADRESELVA ST ,LA GRANGE,CA,95329",159
120.34528,37.705467,"13632 BARRO CT ,LA GRANGE,CA,95329",160
120.34318,37.704411,"4412 ARBOLADA DR ,LA GRANGE,CA,95329",161
120.34447,37.705948,"4517 ARBOLADA DR ,LA GRANGE,CA,95329",162
120.15103,38.080452,"25283 ESTHER AVE ,LONG BARN,CA,95335",163
120.39546,38.041786,"11500 ROCHER CT ,COLUMBIA,CA,95310",164
120.40356,38.025047,"22216 PARROTTS FERRY RD 12,SONORA,CA,95370",165
120.41001,38.029396,"10800 AIRPORT RD ,COLUMBIA,CA,95310",166
120.24102,38.005547,"21113 MARANATHA RD ,TUOLUMNE,CA,95379",167
120.25696,37.981323,"19720 MOELLER ST ,TUOLUMNE,CA,95379",168
120.26335,37.994869,"20517 WILLOW SPRINGS DR ,SOULSBYVILLE,CA,95372",169
120.25314,37.993908,"20490 CHARLOTTE CT ,SOULSBYVILLE,CA,95372",170
120.21356,37.850224,"19345 PLEASANTVIEW DR ,GROVELAND,CA,95321",171
120.20948,37.850296,"19541 PLEASANTVIEW DR ,GROVELAND,CA,95321",172
120.20787,37.848488,"19601 PINE MOUNTAIN DR ,GROVELAND,CA,95321",173
120.22163,37.848404,"19127 FERRETTI RD ,GROVELAND,CA,95321",174
120.22113,37.850967,"19050 FOUNTAIN CT ,GROVELAND,CA,95321",175
120.22231,37.864792,"19119 RABOUL CT ,GROVELAND,CA,95321",176
120.21381,37.859772,"13066 MOEKLUMNES CIR ,GROVELAND,CA,95321",177
120.214,37.858578,"12994 WELLS FARGO DR ,GROVELAND,CA,95321",178
120.21048,37.862907,"19526 FERRETTI RD ,GROVELAND,CA,95321",179
120.22473,37.861965,"13073 JACKSON MILL DR ,GROVELAND,CA,95321",180
120.18451,37.854931,"20643 LONGVIEW ST ,GROVELAND,CA,95321",181
120.18617,37.852543,"12624 CRESTHAVEN DR ,GROVELAND,CA,95321",182
120.17883,37.851124,"12706 HETCH HETCHY CT ,GROVELAND,CA,95321",183
120.3147,37.94305,"14610 BLUE BELL RD W ,SONORA,CA,95370",184
120.37914,37.986805,"97 PALEMONE ST ,SONORA,CA,95370",185
120.37806,37.988762,"367 E JACKSON ST ,SONORA,CA,95370",186
120.37849,37.987019,"121 TERRACE AVE ,SONORA,CA,95370",187
120.38827,37.987701,"336 SNELL ST ,SONORA,CA,95370",188
120.39005,37.987133,"371 CALAVERAS WAY ,SONORA,CA,95370",189
120.39027,37.987396,"280 ALPINE LN ,SONORA,CA,95370",190
120.3901,37.986103,"300 BONANZA RD ,SONORA,CA,95370",191
120.38763,37.984951,"228 AYBA ST ,SONORA,CA,95370",192
120.38699,37.985477,"150 LOWER SUNSET DR ,SONORA,CA,95370",193
120.38773,37.985493,"155 OAK ST ,SONORA,CA,95370",194
120.38515,37.986732,"122 N GREEN ST ,SONORA,CA,95370",195
120.38697,37.985874,"119 LOWER SUNSET DR ,SONORA,CA,95370",196
120.38418,37.985069,"10 N NORLIN ST ,SONORA,CA,95370",197
120.38502,37.987202,"19 SNELL ST ,SONORA,CA,95370",198
120.38316,37.98542,"23 N WASHINGTON ST ,SONORA,CA,95370",199
120.3831,37.985344,"35 S WASHINGTON ST ,SONORA,CA,95370",200
120.38367,37.984406,"37 BRADFORD ST ,SONORA,CA,95370",201
120.01523,38.19352,"28080 PINE AVE ,,CA,95375",202
120.15297,38.08773,"22084 LAKEVIEW DR ,MI WUK VILLAGE,CA,95346",203
120.13549,38.090546,"25874 SCENIC DR ,,CA,95335",204
120.40305,37.995102,"20525 DEERFIELD DR ,SONORA,CA,95370",205
120.40179,37.995163,"20598 EUREKA DR ,SONORA,CA,95370",206
120.40385,37.997925,"11070 NATHAN CT ,SONORA,CA,95370",207
120.40295,37.998535,"20673 GOPHER DR ,SONORA,CA,95370",208
120.40268,37.99675,"20580 GOPHER DR ,SONORA,CA,95370",209
120.40381,37.996006,"20580 W WALNUT DR ,SONORA,CA,95370",210
120.4007,38.03159,"22536 KENNEBEC LN ,COLUMBIA,CA,95310",211
120.39996,38.030003,"22495 KENNEBEC LN ,COLUMBIA,CA,95310",212
120.39676,38.042477,"23220 COLUMBIA SPRINGS LN ,COLUMBIA,CA,95310",213
120.40339,38.033077,"22660 PARROTTS FERRY RD ,COLUMBIA,CA,95310",214
120.40904,38.039059,"10891 N AIRPORT RD ,COLUMBIA,CA,95310",215
120.4069,38.03664,"10956 GREEN ST 135,COLUMBIA,CA,95310",216
120.40711,38.035439,"10956 GREEN ST 150,COLUMBIA,CA,95310",217
120.40926,38.036053,"10956 GREEN ST 182,COLUMBIA,CA,95310",218
120.40929,38.035084,"10956 GREEN ST 177,COLUMBIA,CA,95310",219
120.40829,38.036434,"10956 GREEN ST 221,COLUMBIA,CA,95310",220
120.40894,38.038742,"10891 N AIRPORT RD 6,COLUMBIA,CA,95310",221
120.27346,37.994907,"20614 N SUNSHINE RD ,SONORA,CA,95370",222
120.26904,37.997208,"20684 SOULSBYVILLE RD ,SONORA,CA,95370",223
120.27029,37.997459,"20705 N SUNSHINE RD ,SONORA,CA,95370",224
120.27065,37.996449,"16945 MONO VISTA RD N ,SONORA,CA,95370",225
120.2681,37.993835,"20489 HAZEL AVE ,SOULSBYVILLE,CA,95372",226
120.29321,38.002426,"15972 PARKRIDGE AVE ,SONORA,CA,95370",227
120.16482,37.828804,"21645 LYTLE LOOMIS RD ,,CA,95321",228
120.23648,37.828983,"11320 MERRELL RD ,GROVELAND,CA,95321",229
120.2324,37.825459,"18700 VERNAL DR ,GROVELAND,CA,95321",230
120.2707,38.054119,"23887 OXBOW LN S ,SONORA,CA,95370",231
120.26954,38.055042,"23895 OXBOW LN S ,SONORA,CA,95370",232
120.27244,38.05484,"23902 OXBOW LN S ,SONORA,CA,95370",233
120.27155,38.058636,"24073 OXBOW LN N ,SONORA,CA,95370",234
120.27551,38.058113,"24116 OXBOW LN N ,SONORA,CA,95370",235
120.26337,38.063072,"24254 MARTINGALE LN ,SONORA,CA,95370",236
120.26313,37.980392,"17260 TIMBER DR ,,CA,95372",237
120.26963,37.980289,"17031 DRAPER MINE RD ,SONORA,CA,95370",238
120.27122,37.976448,"16951 MONTE GRANDE DR ,SOULSBYVILLE,CA,95372",239
120.27241,37.975601,"19450 ARMARIO RD ,SOULSBYVILLE,CA,95372",240
120.267,37.975338,"17110 MONTE GRANDE DR ,SOULSBYVILLE,CA,95372",241
120.26398,37.975544,"17275 MONTE GRANDE DR ,SOULSBYVILLE,CA,95372",242
120.26172,37.977154,"17230 MONTE GRANDE DR ,SOULSBYVILLE,CA,95372",243
120.1795,37.855587,"12876 GREEN VALLEY CIR ,GROVELAND,CA,95321",244
120.18211,37.855541,"20686 LONGVIEW ST ,GROVELAND,CA,95321",245
120.17932,37.853836,"12769 CRESTHAVEN DR ,GROVELAND,CA,95321",246
120.18313,37.855667,"20656 LONGVIEW ST ,GROVELAND,CA,95321",247
120.19015,37.856476,"20630 NOB HILL CIR ,GROVELAND,CA,95321",248
120.18243,37.867249,"20991 HILLCROFT DR ,GROVELAND,CA,95321",249
120.18585,37.865833,"20966 HEMLOCK ST ,GROVELAND,CA,95321",250
120.17458,37.868038,"13480 YORKSHIRE RD ,GROVELAND,CA,95321",251
120.17274,37.864315,"21178 HEMLOCK ST ,GROVELAND,CA,95321",252
120.17449,37.864571,"13342 MULE CT ,GROVELAND,CA,95321",253
120.18377,37.86488,"20924 WOODSIDE WAY ,GROVELAND,CA,95321",254
120.18468,37.860123,"20766 HEMLOCK ST ,GROVELAND,CA,95321",255
120.18185,37.864132,"20975 WOODSIDE WAY ,GROVELAND,CA,95321",256
120.17592,37.864246,"21131 HEMLOCK ST ,GROVELAND,CA,95321",257
120.1696,37.861183,"13130 CLEMENTS RD ,GROVELAND,CA,95321",258
120.17072,37.858089,"12969 CLEMENTS RD ,GROVELAND,CA,95321",259
120.20752,37.847649,"12376 SUNNYSIDE WAY ,GROVELAND,CA,95321",260
120.20324,37.847446,"12358 MILLS ST ,GROVELAND,CA,95321",261
120.20738,37.844982,"19652 BUTLER WAY ,GROVELAND,CA,95321",262
120.2271,37.992832,"20592 PONDEROSA WAY ,TUOLUMNE,CA,95379",263
120.24049,38.002594,"20965 MARANATHA RD ,TUOLUMNE,CA,95379",264
120.23219,38.002831,"20914 TUOLUMNE RD N ,TUOLUMNE,CA,95379",265
120.25556,37.996315,"20598 CHARLOTTE CT ,SOULSBYVILLE,CA,95372",266
120.2608,37.997551,"20665 CAYLOR DR ,SOULSBYVILLE,CA,95372",267
120.25807,37.997501,"20673 W WILLOW SPRINGS DR ,SOULSBYVILLE,CA,95372",268
120.21201,37.854908,"20230 PLEASANTVIEW DR ,GROVELAND,CA,95321",269
120.22371,37.850765,"19155 FERRETTI RD ,GROVELAND,CA,95321",270
120.21802,37.858475,"12901 MUELLER DR ,GROVELAND,CA,95321",271
120.22108,37.859825,"13024 GAMBLE ST ,GROVELAND,CA,95321",272
120.21848,37.85944,"13048 TIP TOP CT ,GROVELAND,CA,95321",273
120.22046,37.863052,"13085 MUELLER DR ,GROVELAND,CA,95321",274
120.21651,37.859413,"12948 MUELLER DR ,GROVELAND,CA,95321",275
120.17986,37.853447,"12760 CRESTHAVEN DR ,GROVELAND,CA,95321",276
120.18687,37.855614,"20603 LONGVIEW ST ,GROVELAND,CA,95321",277
120.19517,37.853741,"20487 ROCK CANYON WAY ,GROVELAND,CA,95321",278
120.18642,37.853077,"20717 ROCK CANYON WAY ,GROVELAND,CA,95321",279
120.18356,37.849697,"20740 FORESTWOOD WAY ,GROVELAND,CA,95321",280
120.17066,37.862949,"13231 CLEMENTS RD ,GROVELAND,CA,95321",281
120.20875,37.841518,"12078 HILLHURST CIR ,GROVELAND,CA,95321",282
120.19592,37.846523,"20300 MARINA CT ,GROVELAND,CA,95321",283
120.19762,37.841324,"20230 LITTLE VALLEY RD ,GROVELAND,CA,95321",284
120.20103,37.847515,"20024 LOWER SKYRIDGE DR ,GROVELAND,CA,95321",285
120.17316,38.075035,"24927 BONANZA DR ,MI WUK VILLAGE,CA,95346",286
120.17332,38.071838,"24812 QUARTZ AVE ,MI WUK VILLAGE,CA,95346",287
120.17246,38.073513,"24875 BONANZA DR ,MI WUK VILLAGE,CA,95346",288
120.38384,38.022812,"21926 RED GULCH RD ,SONORA,CA,95370",289
120.39109,38.049179,"23509 ITALIAN BAR RD ,COLUMBIA,CA,95310",290
120.39044,38.04895,"23527 ITALIAN BAR RD ,COLUMBIA,CA,95310",291
120.40388,38.010757,"21370 SHAWS FLAT RD ,SONORA,CA,95370",292
120.41179,38.006271,"10789 JOAQUIN MORRIS RD ,SONORA,CA,95370",293
120.40138,37.991787,"20389 E WALNUT DR ,SONORA,CA,95370",294
120.4037,37.995682,"20595 W WALNUT DR ,SONORA,CA,95370",295
120.40073,37.995041,"20556 FLORA LN ,SONORA,CA,95370",296
120.39951,37.993519,"20474 BAY MEADOWS DR ,SONORA,CA,95370",297
120.41204,37.989902,"20255 JAMESTOWN RD ,SONORA,CA,95370",298
120.40966,37.991268,"10797 RACETRACK RD ,SONORA,CA,95370",299
120.41303,37.983089,"19816 ROUGH AND READY TRL ,SONORA,CA,95370",300
120.41295,37.987862,"20106 JAMESTOWN RD 16,SONORA,CA,95370",301
120.38989,37.99868,"122 BANNER DR ,SONORA,CA,95370",302
120.37904,37.998493,"20755 SKYVIEW DR ,SONORA,CA,95370",303
120.38294,37.997509,"20658 SKYVIEW DR ,SONORA,CA,95370",304
120.38676,37.993069,"531 ORCHARD AVE ,SONORA,CA,95370",305
120.38766,37.993687,"661 SHAWS FLAT RD ,SONORA,CA,95370",306
120.38216,38.007938,"21200 JACK PAGE RD ,SONORA,CA,95370",307
120.39256,38.003201,"20909 SHAWS FLAT RD ,SONORA,CA,95370",308
120.44435,37.986374,"20022 RAWHIDE RD ,SONORA,CA,95370",309
120.22713,38.05069,"18878 BROADHURST DR ,TWAIN HARTE,CA,95383",310
120.2448,38.048225,"23426 TANAGER DR ,TWAIN HARTE,CA,95383",311
120.24839,38.049187,"23380 TANAGER DR ,TWAIN HARTE,CA,95383",312
120.247,38.048283,"17987 KINGLET CT ,TWAIN HARTE,CA,95383",313
120.24693,38.046402,"17908 TOWHEE LN ,TWAIN HARTE,CA,95383",314
120.24818,38.046707,"17985 TOWHEE LN ,TWAIN HARTE,CA,95383",315
120.24886,38.042225,"23084 S FORK RD ,TWAIN HARTE,CA,95383",316
120.24703,38.040565,"17905 LARAMIE LN ,TWAIN HARTE,CA,95383",317
120.2347,38.044483,"23300 SHADYBROOK DR ,TWAIN HARTE,CA,95383",318
120.21013,38.055283,"19561 MIDDLE CAMP RD ,TWAIN HARTE,CA,95383",319
120.30812,37.981384,"19766 HIGHWAY 108 ,SONORA,CA,95370",320
120.30726,37.980198,"15305 CAVALIERI RD ,SONORA,CA,95370",321
120.28551,37.978848,"19696 WHITTO MINE RD ,SONORA,CA,95370",322
120.27951,37.978291,"19626 WHITTO MINE RD ,SONORA,CA,95370",323
120.30957,37.985897,"19991 WAIF MINE RD ,SONORA,CA,95370",324
120.12798,37.811405,"23059 HELLS HOLLOW RD ,GROVELAND,CA,95321",325
120.26781,37.980236,"19670 CARNE RICHARDS RD ,SOULSBYVILLE,CA,95372",326
120.48458,37.887779,"7600 STATE HIGHWAY 120 ,JAMESTOWN,CA,95327",327
120.4418,37.863377,"13281 RED HILLS RD ,CHINESE CAMP,CA,95309",328
120.44078,37.864197,"13301 RED HILLS RD ,CHINESE CAMP,CA,95309",329
120.40129,37.880299,"14156 PARK AVE ,JAMESTOWN,CA,95327",330
120.37341,37.867867,"13383 LONE BEND RD ,JAMESTOWN,CA,95327",331
120.46241,37.723515,"5333 AVENIDA LUGO N ,LA GRANGE,CA,95329",332
120.31522,37.660606,"1965 NAVARRO ST ,LA GRANGE,CA,95329",333
120.3222,37.658752,"14701 BONITA CT ,LA GRANGE,CA,95329",334
120.32385,37.657894,"14747 VALVERDE ,LA GRANGE,CA,95329",335
120.35087,37.732819,"5945 ARBOLADA DR ,LA GRANGE,CA,95329",336
120.34116,37.727783,"13887 CADENA WAY ,COULTERVILLE,CA,95311",337
120.34586,37.725925,"13747 CADENA WAY ,COULTERVILLE,CA,95311",338
120.18968,37.841347,"20097 RIDGECREST WAY ,GROVELAND,CA,95321",339
120.20046,37.846706,"20015 UPPER SKYRIDGE DR ,GROVELAND,CA,95321",340
120.32981,37.956512,"18330 WARDS FERRY RD 13,SONORA,CA,95370",341
120.33011,37.95821,"18330 WARDS FERRY RD 81,SONORA,CA,95370",342
120.32819,37.957184,"18330 WARDS FERRY RD 100,SONORA,CA,95370",343
120.32877,37.952068,"18190 WARDS FERRY RD ,SONORA,CA,95370",344
120.30023,37.973812,"15311 CURTIS CIR ,SONORA,CA,95370",345
120.28844,37.962681,"16115 MORRIS RD ,SONORA,CA,95370",346
120.29454,37.956741,"15805 TUOLUMNE RD ,SONORA,CA,95370",347
120.28458,37.968987,"19150 BEAUCHAMP DR ,SONORA,CA,95370",348
120.28383,37.967979,"19069 BLACK OAK RD ,SONORA,CA,95370",349
120.2822,37.967525,"19015 DREW CT ,SONORA,CA,95370",350
120.28251,37.967808,"18990 DREW CT ,SONORA,CA,95370",351
120.29199,37.962219,"15980 MORRIS RD ,SONORA,CA,95370",352
120.28377,37.962269,"18590 WOODHAM CARNE RD ,SONORA,CA,95370",353
120.28383,37.955551,"18388 WOODHAM CARNE RD ,SONORA,CA,95370",354
120.27951,37.953743,"18224 COYOTE MEADOW RD ,SONORA,CA,95370",355
120.24138,38.038979,"18192 LITTLE FULLER RD ,TWAIN HARTE,CA,95383",356
120.20171,38.037106,"22922 HUSTON AVE ,TWAIN HARTE,CA,95383",357
120.44691,37.938328,"17341 JEANESE DR ,JAMESTOWN,CA,95327",358
120.28868,38.020939,"21995 FORTUNA MINE RD ,SONORA,CA,95370",359
0,0,"19463 PEPPERMINT FALLS RD ,JAMESTOWN,CA,95327",360
0,0,"19471 PEPPERMINT FALLS RD ,JAMESTOWN,CA,95327",361
120.42448,37.952145,"18151 STATE HIGHWAY 108 ,JAMESTOWN,CA,95327",362
120.42293,37.953789,"18208 MAIN ST ,JAMESTOWN,CA,95327",363
120.42112,37.951591,"18123 SECO ST ,JAMESTOWN,CA,95327",364
120.42024,37.951241,"10370 9TH ST ,JAMESTOWN,CA,95327",365
120.41866,37.95174,"10455 ANTONE AVE ,JAMESTOWN,CA,95327",366
120.41772,37.952305,"10511 8TH ST ,JAMESTOWN,CA,95327",367
120.4137,37.953117,"10658 9TH ST ,JAMESTOWN,CA,95327",368
120.42062,37.950367,"18014 SECO ST ,JAMESTOWN,CA,95327",369
120.41988,37.949986,"10422 10TH ST ,JAMESTOWN,CA,95327",370
120.41846,37.950153,"18038 SIERRA AVE ,JAMESTOWN,CA,95327",371
120.4185,37.950665,"18068 SIERRA AVE ,JAMESTOWN,CA,95327",372
120.42645,37.944855,"17769 STATE HIGHWAY 108 ,JAMESTOWN,CA,95327",373
120.42461,37.945286,"17767 WOODS WAY ,JAMESTOWN,CA,95327",374
120.41615,37.946175,"10555 PETTICOAT JUNCTION DR ,JAMESTOWN,CA,95327",375
120.41537,37.946114,"10576 PETTICOAT JUNCTION DR ,JAMESTOWN,CA,95327",376
120.23757,37.963516,"18772 PINE ST ,,CA,95379",377
120.23826,37.962826,"18727 MAIN ST ,TUOLUMNE,CA,95379",378
120.23657,37.962379,"18430 CHESTNUT AVE ,TUOLUMNE,CA,95379",379
120.29633,38.11639,"27100 ITALIAN BAR RD ,,CA,95310",380
120.05354,38.162666,"26430 OLD MONO RD ,COLD SPRINGS,CA,95335",381
120.05395,38.162773,"26410 OLD MONO RD ,COLD SPRINGS,CA,95335",382
120.05017,38.162006,"26565 OLD MONO RD ,COLD SPRINGS,CA,95335",383
120.05627,38.16103,"29827 MONO TRL ,COLD SPRINGS,CA,95335",384
120.0565,38.160576,"29815 MONO TRL ,COLD SPRINGS,CA,95335",385
120.05711,38.157677,"29686 LASSEN DR ,COLD SPRINGS,CA,95335",386
120.2351,38.041164,"23112 SIERRA DR ,TWAIN HARTE,CA,95383",387
120.23714,38.039799,"23008 SIERRA DR ,TWAIN HARTE,CA,95383",388
120.2317,38.040501,"23054 STRAUCH DR ,TWAIN HARTE,CA,95383",389
120.22948,38.039513,"23098 FULLER RD ,TWAIN HARTE,CA,95383",390
120.22808,38.042122,"18867 DOGWOOD DR ,TWAIN HARTE,CA,95383",391
120.22696,38.04084,"18874 MANZANITA DR ,TWAIN HARTE,CA,95383",392
120.2261,38.041786,"18906 MANZANITA DR ,TWAIN HARTE,CA,95383",393
120.23029,38.039627,"23057 FULLER RD ,TWAIN HARTE,CA,95383",394
120.2294,38.038361,"22910 TWAIN HARTE DR ,TWAIN HARTE,CA,95383",395
120.23457,38.038006,"22899 PLACER DR ,TWAIN HARTE,CA,95383",396
120.23348,38.035484,"22822 GOLF CLUB DR ,TWAIN HARTE,CA,95383",397
120.23516,38.033707,"22716 GOLF CLUB DR ,TWAIN HARTE,CA,95383",398
120.23502,38.034779,"22760 PLACER DR ,,CA,95383",399
120.23714,38.033875,"22705 BRET HARTE DR ,TWAIN HARTE,CA,95383",400
120.23629,38.034111,"22723 BRET HARTE DR ,TWAIN HARTE,CA,95383",401
120.23602,38.030842,"22548 TWAIN HARTE DR ,TWAIN HARTE,CA,95383",402
120.23547,38.030418,"22478 LINALANE ,,CA,95383",403
120.23277,38.030746,"18606 WOODWARDIA RD ,TWAIN HARTE,CA,95383",404
120.24747,38.029507,"22397 GERALDINE CIR ,SONORA,CA,95370",405
120.23588,38.02877,"22424 LILAC LN ,TWAIN HARTE,CA,95383",406
120.23553,38.028637,"22461 LILAC LN ,TWAIN HARTE,CA,95383",407
120.23393,38.028839,"22426 RIDGE RD ,,CA,95383",408
120.23543,38.027935,"22351 RIDGE RD ,,CA,95383",409
120.24197,38.027576,"22350 TWAIN HARTE DR ,TWAIN HARTE,CA,95383",410
120.24081,38.027439,"22329 PONDEROSA DR ,TWAIN HARTE,CA,95383",411
120.3932,37.974495,"759 W STOCKTON ST ,SONORA,CA,95370",412
120.39291,37.975735,"688 W STOCKTON ST ,SONORA,CA,95370",413
120.38905,37.976139,"415 FAIR ST ,SONORA,CA,95370",414
120.38861,37.975876,"387 SONORA AVE ,SONORA,CA,95370",415
120.38823,37.976341,"222 HILL ST ,SONORA,CA,95370",416
120.22328,37.993618,"20443 CANYONVIEW DR ,TUOLUMNE,CA,95379",417
120.22416,37.991898,"20556 PONDEROSA WAY ,TUOLUMNE,CA,95379",418
120.22433,37.990189,"20316 CANYONVIEW DR ,TUOLUMNE,CA,95379",419
120.22569,37.991386,"20330 WESTVIEW DR ,TUOLUMNE,CA,95379",420
120.22583,37.990505,"20284 CANYONVIEW DR ,TUOLUMNE,CA,95379",421
120.22562,37.988445,"20196 CANYONVIEW DR ,TUOLUMNE,CA,95379",422
120.22538,37.989956,"20281 CANYONVIEW DR ,TUOLUMNE,CA,95379",423
120.22149,37.990585,"20342 HONEY LN ,TUOLUMNE,CA,95379",424
120.24767,37.979103,"19669 TUOLUMNE RD N ,TUOLUMNE,CA,95379",425
120.24169,37.988327,"20152 QUARTER MILE RD ,TUOLUMNE,CA,95379",426
120.2433,37.990871,"20300 TUOLUMNE RD N ,TUOLUMNE,CA,95379",427
120.23325,37.988403,"18540 MASTADON MINE RD ,TUOLUMNE,CA,95379",428
120.2384,37.991062,"20337 PATRICK LN ,TUOLUMNE,CA,95379",429
120.24477,37.996067,"20593 EDEN LN ,TUOLUMNE,CA,95379",430
120.23732,37.995323,"20550 TUOLUMNE RD N ,TUOLUMNE,CA,95379",431
120.24011,38.004627,"21072 WETUMKA RD ,TUOLUMNE,CA,95379",432
120.24303,37.999401,"20792 MARANATHA RD ,TUOLUMNE,CA,95379",433
120.23332,38.001148,"20837 TOMIRA MEADOW RD ,TUOLUMNE,CA,95379",434
120.18464,37.84951,"12500 PINE BROOK WAY ,GROVELAND,CA,95321",435
120.18821,37.848156,"20913 BIG FOOT CT ,GROVELAND,CA,95321",436
120.19001,37.847095,"20620 LONGRIDGE CT ,GROVELAND,CA,95321",437
120.18984,37.846767,"20607 LONGRIDGE CT ,GROVELAND,CA,95321",438
120.18289,37.847496,"20728 BIG FOOT CIR ,GROVELAND,CA,95321",439
120.17864,37.847172,"20787 BUTTERCUP CIR ,GROVELAND,CA,95321",440
120.17983,37.846329,"20744 BUTTERCUP CIR ,GROVELAND,CA,95321",441
120.18124,37.847462,"20758 BIG FOOT CIR ,GROVELAND,CA,95321",442
120.18437,37.845318,"20728 POINT VIEW DR ,GROVELAND,CA,95321",443
120.18781,37.845009,"20154 PINE MOUNTAIN DR ,GROVELAND,CA,95321",444
120.18573,37.844162,"20139 PINE MOUNTAIN DR ,GROVELAND,CA,95321",445
120.18136,37.844872,"20783 POINT VIEW DR ,GROVELAND,CA,95321",446
120.17883,37.845062,"20836 KNOLLCREST CT ,GROVELAND,CA,95321",447
120.17991,37.842957,"20832 POINT VIEW DR ,GROVELAND,CA,95321",448
120.18054,37.842831,"20749 NONPAREIL WAY ,GROVELAND,CA,95321",449
120.19521,37.856045,"12930 BOITANO RD ,GROVELAND,CA,95321",450
120.18372,37.860081,"20745 HEMLOCK ST ,GROVELAND,CA,95321",451
120.17855,37.859558,"20910 ELDERBERRY WAY ,GROVELAND,CA,95321",452
120.17927,37.859974,"20915 ELDERBERRY WAY ,GROVELAND,CA,95321",453
120.17806,37.858952,"21000 ELDERBERRY WAY ,GROVELAND,CA,95321",454
120.47316,37.949574,"8400 OLD MELONES RD 48,JAMESTOWN,CA,95327",455
120.47182,37.948971,"8400 OLD MELONES RD 63,JAMESTOWN,CA,95327",456
120.41261,37.948376,"18134 POND VIEW CT ,JAMESTOWN,CA,95327",457
120.3576,38.014297,"21881 LYONS BALD MOUNTAIN RD ,SONORA,CA,95370",458
120.29393,38.013123,"21524 WINTERS ROCK RD ,SONORA,CA,95370",459
120.18746,37.852875,"20625 ROCK CANYON WAY ,GROVELAND,CA,95321",460
120.42981,37.940151,"9901 BELL MOONEY RD ,JAMESTOWN,CA,95327",461
120.27754,38.024925,"16655 RILEY RD ,,CA,95370",462
120.38958,38.000957,"1248 SHAWS FLAT RD ,SONORA,CA,95370",463
120.27934,38.017544,"21799 PHOENIX LAKE RD ,SONORA,CA,95370",464
120.27494,38.022579,"22072 FALLVIEW LN ,SONORA,CA,95370",465
120.27376,38.022175,"21962 FALLVIEW DR ,SONORA,CA,95370",466
120.38312,38.003048,"11928 HIGHWAY 49 ,SONORA,CA,95370",467
120.39084,38.00013,"265 RIDGE RD ,SONORA,CA,95370",468
120.39169,37.999527,"271 RESERVOIR RD ,SONORA,CA,95370",469
120.39243,38.000603,"326 RESERVOIR RD ,SONORA,CA,95370",470
120.39043,37.999367,"220 RIDGE RD ,SONORA,CA,95370",471
120.38887,37.998684,"63 BANNER DR ,SONORA,CA,95370",472
120.39066,37.998844,"198 BANNER DR ,SONORA,CA,95370",473
120.38458,38.000107,"202 OHARA DR ,SONORA,CA,95370",474
120.38583,38.000092,"100 GATEWOOD DR ,SONORA,CA,95370",475
120.38304,38.000214,"20795 COLUMBIA WAY ,SONORA,CA,95370",476
120.39514,37.99789,"11520 JENNIFER CT ,SONORA,CA,95370",477
120.38371,37.995277,"704 HIGHWAY 49 ,SONORA,CA,95370",478
120.39014,37.992294,"636 SHAWS FLAT RD ,SONORA,CA,95370",479
120.38823,37.991749,"480 SHAWS FLAT RD ,SONORA,CA,95370",480
120.38751,37.99353,"647 SHAWS FLAT RD ,SONORA,CA,95370",481
120.383,37.99295,"515 HIGHWAY 49 ,SONORA,CA,95370",482
120.37868,37.99107,"215 HOPE LN ,SONORA,CA,95370",483
120.38568,37.995701,"131 ELK DR ,SONORA,CA,95370",484
120.3586,37.986721,"13115 BECKWITH RD ,SONORA,CA,95370",485
120.35847,37.985184,"19972 EVELYN CT ,SONORA,CA,95370",486
120.34064,37.702377,"13888 CEDRO CT ,LA GRANGE,CA,95329",487
120.27448,38.035408,"16807 BIG HILL RD ,SONORA,CA,95370",488
120.27305,38.019455,"21922 GLENWOOD RD ,SONORA,CA,95370",489
120.31892,38.041195,"14760 ROSEY RIDGE CT ,SONORA,CA,95370",490
120.27737,38.042149,"16591 CHARLES OTTER DR ,SONORA,CA,95370",491
120.33867,38.045921,"14000 NORTHRIDGE RD ,SONORA,CA,95370",492
120.37156,38.052021,"23721 ORION MINE RD ,COLUMBIA,CA,95310",493
120.35856,38.035187,"13179 DONDERO RD ,SONORA,CA,95370",494
120.35335,38.035931,"22865 CEDARCREST RD ,SONORA,CA,95370",495
120.3546,38.037567,"22602 CEDARCREST RD ,SONORA,CA,95370",496
120.34608,38.036037,"13553 STILL PINE RD ,SONORA,CA,95370",497
120.3441,38.039509,"23055 DOLLY LN ,SONORA,CA,95370",498
120.32236,38.023739,"22130 VILLAS LN ,SONORA,CA,95370",499
120.31687,38.029552,"22490 YERBA SANTA RD ,SONORA,CA,95370",500
120.31442,38.02578,"22251 YERBA SANTA RD ,SONORA,CA,95370",501
120.39908,38.012722,"11315 HIGHWAY 49 ,SONORA,CA,95370",502
120.40365,37.995628,"20589 DEERFIELD DR ,SONORA,CA,95370",503
120.40926,37.990582,"10866 RACETRACK RD ,SONORA,CA,95370",504
120.22569,38.042294,"18860 DOGWOOD DR ,,CA,95383",505
120.23551,38.038334,"22948 BLACK OAK DR ,TWAIN HARTE,CA,95383",506
120.23019,38.040295,"23045 JOAQUIN GULLY ,TWAIN HARTE,CA,95383",507
120.23759,38.03598,"22811 FULLER RD ,TWAIN HARTE,CA,95383",508
120.23164,38.032043,"22608 SPRUCE DR ,TWAIN HARTE,CA,95383",509
120.24095,38.031002,"22540 GOLF CLUB DR ,TWAIN HARTE,CA,95383",510
120.3304,37.977036,"19499 HESS AVE ,SONORA,CA,95370",511
120.24299,37.950726,"18231 YOSEMITE RD ,TUOLUMNE,CA,95379",512
120.29128,37.995159,"16040 AVENIDA DEL SOL ,SONORA,CA,95370",513
120.28086,38.000271,"16592 PARKRIDGE AVE ,,CA,95370",514
120.28654,37.996239,"16282 CRESTRIDGE AVE ,SONORA,CA,95370",515
120.44901,37.985687,"19772 RAWHIDE RD ,SONORA,CA,95370",516
120.24531,38.034958,"22656 VIRGINIA AVE ,TWAIN HARTE,CA,95383",517
120.2905,37.982952,"16155 VIA ESTE RD ,SONORA,CA,95370",518
120.19809,38.053284,"23962 REDWOOD CT ,TWAIN HARTE,CA,95383",519
120.35529,37.976406,"13232 MONO WAY ,SONORA,CA,95370",520
120.41739,37.922184,"16500 STAMP MILL LOOP RD ,,CA,95327",521
120.46777,37.884426,"8300 STATE HIGHWAY 120 ,JAMESTOWN,CA,95327",522
120.38302,37.985214,"56 S WASHINGTON ST ,SONORA,CA,95370",523
120.38194,37.983479,"123 S WASHINGTON ST ,SONORA,CA,95370",524
120.38187,37.98299,"193 S WASHINGTON ST ,SONORA,CA,95370",525
120.38282,37.984947,"98 S WASHINGTON ST ,SONORA,CA,95370",526
120.38039,37.986015,"166 LYONS ST ,SONORA,CA,95370",527
120.38242,37.985397,"19 S STEWART ST ,SONORA,CA,95370",528
120.2174,37.862362,"19264 JAMES CIR ,GROVELAND,CA,95321",529
120.21784,37.848446,"12417 TANNAHILL DR ,GROVELAND,CA,95321",530
120.25065,38.001408,"20872 CAYLOR DR ,SOULSBYVILLE,CA,95372",531
120.13399,38.091648,"25891 MONO DR ,,CA,95335",532
120.13503,38.091064,"25901 SCENIC DR ,,CA,95335",533
120.13322,38.091248,"25874 MONO DR ,,CA,95335",534
120.13896,38.089508,"25814 LONG BARN-SUGARPINE RD ,,CA,95335",535
120.13882,38.087288,"25692 UPPER SCENIC DR ,,CA,95335",536
120.38937,38.041706,"11788 YANKEE HILL RD ,COLUMBIA,CA,95310",537
120.38751,38.038548,"11762 YANKEE HILL RD ,COLUMBIA,CA,95310",538
120.3844,38.037472,"11955 YANKEE HILL RD ,COLUMBIA,CA,95310",539
120.38916,38.038147,"11793 MELON PATCH LN ,COLUMBIA,CA,95310",540
120.38107,38.038097,"12081 YANKEE HILL RD ,COLUMBIA,CA,95310",541
120.4245,38.037617,"10290 N AIRPORT RD ,COLUMBIA,CA,95310",542
120.40355,38.02269,"11120 BULL PINE LN ,SONORA,CA,95370",543
120.40236,38.02433,"11180 BULL PINE LN ,SONORA,CA,95370",544
120.40073,38.022781,"22092 CRAIG CT ,SONORA,CA,95370",545
120.40141,38.022278,"11270 MCKELLAR DR ,SONORA,CA,95370",546
120.26939,37.992447,"18030 CLOUDS REST RD ,SOULSBYVILLE,CA,95372",547
120.45735,37.994972,"8697 FRAGUERO RD ,SONORA,CA,95370",548
120.43889,37.990276,"9565 HIGHWAY 49 ,SONORA,CA,95370",549
120.44815,37.977825,"19530 RAWHIDE RD ,SONORA,CA,95370",550
120.43388,37.990501,"9796 MORMON CREEK RD ,SONORA,CA,95370",551
120.4435,37.984791,"20053 RAWHIDE RD ,SONORA,CA,95370",552
120.44351,37.984692,"20043 RAWHIDE RD ,SONORA,CA,95370",553
120.44518,37.976471,"19533 RAWHIDE RD ,SONORA,CA,95370",554
120.44392,37.977478,"19573 RAWHIDE RD ,SONORA,CA,95370",555
120.44408,37.986843,"20036 RAWHIDE RD ,SONORA,CA,95370",556
120.4417,37.980751,"9478 RIMROCK RD ,SONORA,CA,95370",557
120.44185,37.983372,"9462 RIMROCK RD ,SONORA,CA,95370",558
120.43647,37.980785,"9623 RIMROCK RD ,SONORA,CA,95370",559
120.46201,37.99025,"8524 HIGHWAY 49 ,SONORA,CA,95370",560
120.45449,37.99155,"8889 HIGHWAY 49 ,SONORA,CA,95370",561
120.45323,37.994343,"20520 BLACKBERRY POND LN ,SONORA,CA,95370",562
120.45869,37.989941,"8650 WILCOX RANCH RD ,SONORA,CA,95370",563
120.4417,37.97831,"9430 BOSTWICK RD ,SONORA,CA,95370",564
120.44006,37.993793,"9530 POPPY HILLS DR ,SONORA,CA,95370",565
120.24401,38.048309,"23382 THUNDERBOLT MINE RD ,TWAIN HARTE,CA,95383",566
120.23526,38.046974,"18580 WILDWOOD DR ,TWAIN HARTE,CA,95383",567
119.95058,37.816471,"30840 HARDIN FLAT RD ,GROVELAND,CA,95321",568
119.89611,37.806671,"33569 HARDIN FLAT RD ,GROVELAND,CA,95321",569
119.94173,37.811634,"31451 HARDIN FLAT RD ,GROVELAND,CA,95321",570
119.96749,37.826077,"11250 SAWMILL MOUNTAIN RD ,GROVELAND,CA,95321",571
120.26708,38.065189,"17103 PALOMINO LN ,SONORA,CA,95370",572
120.26839,38.064732,"24474 WILD HORSE LN ,SONORA,CA,95370",573
120.26788,38.060219,"17106 BROKEN PINE RD ,SONORA,CA,95370",574
120.26859,38.058327,"24025 S BEAR CLOVER CT ,SONORA,CA,95370",575
120.26866,38.05925,"24090 N BEAR CLOVER CT ,SONORA,CA,95370",576
120.27039,38.059185,"16961 BROKEN PINE RD ,SONORA,CA,95370",577
120.27083,38.060455,"17028 BROKEN PINE RD ,SONORA,CA,95370",578
120.27058,38.058964,"16968 BROKEN PINE RD ,SONORA,CA,95370",579
120.27621,38.054935,"23870 PACK TRAIL RD ,SONORA,CA,95370",580
120.2744,38.054367,"23801 PACK TRAIL RD ,SONORA,CA,95370",581
120.27026,38.058327,"24040 HITCHING POST RD ,SONORA,CA,95370",582
120.27094,38.058037,"24032 OXBOW LN N ,SONORA,CA,95370",583
120.26717,38.054123,"23805 STABLE RD ,SONORA,CA,95370",584
120.26888,38.054638,"23872 STABLE RD ,SONORA,CA,95370",585
120.2698,38.058041,"23956 STABLE RD ,SONORA,CA,95370",586
120.20663,37.846382,"12250 MILLS ST ,GROVELAND,CA,95321",587
120.20799,37.843838,"12886 HONDO CT ,GROVELAND,CA,95321",588
120.20679,37.844036,"19684 BUTLER WAY ,GROVELAND,CA,95321",589
120.21102,37.843395,"12006 HILLHURST CIR ,GROVELAND,CA,95321",590
120.33266,37.966957,"14195 TUOLUMNE RD ,SONORA,CA,95370",591
120.33565,37.965172,"18879 RUGGED TRL RD,SONORA,CA,95370",592
120.33224,37.967083,"14235 TUOLUMNE RD ,SONORA,CA,95370",593
120.3327,37.964752,"14275 TUOLUMNE RD ,SONORA,CA,95370",594
120.32873,37.962765,"14405 TUOLUMNE RD ,SONORA,CA,95370",595
120.33295,37.950684,"18000 TINNIN RD ,SONORA,CA,95370",596
120.18814,37.841366,"20289 UPPER SKYRIDGE DR ,GROVELAND,CA,95321",597
120.32469,37.956882,"18380 WARDS FERRY RD ,SONORA,CA,95370",598
120.32522,37.954777,"18282 KELLEY RANCH RD ,SONORA,CA,95370",599
120.31249,37.949516,"15150 MOUNTAIN LILY RD ,SONORA,CA,95370",600
120.31327,37.947227,"15115 MOUNTAIN LILY RD ,SONORA,CA,95370",601
120.31403,37.946007,"15055 BLUE BELL RD W ,SONORA,CA,95370",602
120.3122,37.95047,"15131 LUPINE LN ,SONORA,CA,95370",603
120.17727,38.072823,"24889 STATE HIGHWAY 108 ,MI WUK VILLAGE,CA,95346",604
120.33292,37.971642,"19238 CORDELIA AVE ,SONORA,CA,95370",605
120.31661,37.949863,"15040 LUPINE LN ,SONORA,CA,95370",606
120.28638,37.963482,"16237 N MORRIS RD ,SONORA,CA,95370",607
120.28262,37.963421,"16421 TUOLUMNE RD ,SONORA,CA,95370",608
120.381,37.985241,"114 LYONS ST ,SONORA,CA,95370",609
120.38068,37.983952,"153 S SHEPHERD ST ,SONORA,CA,95370",610
120.38097,37.983711,"165 S SHEPHERD ST ,SONORA,CA,95370",611
120.38086,37.982494,"229 S SHEPHERD ST ,SONORA,CA,95370",612
120.38055,37.981422,"311 S SHEPHERD ST ,SONORA,CA,95370",613
120.38104,37.9813,"299 S STEWART ST ,SONORA,CA,95370",614
120.38015,37.980995,"345 S SHEPHERD ST ,SONORA,CA,95370",615
120.38088,37.977287,"18 W LYTTON ST ,SONORA,CA,95370",616
120.38078,37.978035,"530 S WASHINGTON ST ,SONORA,CA,95370",617
120.38105,37.977268,"570 OLIVE ST ,SONORA,CA,95370",618
120.3801,37.979885,"426 S SHEPHERD ST ,SONORA,CA,95370",619
120.37962,37.978096,"547 S STEWART ST ,SONORA,CA,95370",620
120.37912,37.978558,"541 S SHEPHERD ST ,SONORA,CA,95370",621
120.37934,37.977608,"599 S STEWART ST ,SONORA,CA,95370",622
120.37095,37.978653,"820 DELNERO DR A,SONORA,CA,95370",623
120.36588,37.978622,"19560 RIVER BIRCH CT 5,SONORA,CA,95370",624
120.36588,37.978622,"19560 RIVER BIRCH CT 16,SONORA,CA,95370",625
120.36665,37.979244,"12730 TULIP CT 7,SONORA,CA,95370",626
120.36502,37.978828,"19600 TUPELO CT 10,SONORA,CA,95370",627
120.36502,37.978828,"19600 TUPELO CT 15,SONORA,CA,95370",628
120.36339,37.992413,"20386 EATON CT ,SONORA,CA,95370",629
120.36041,37.986977,"20627 DIANE DR ,SONORA,CA,95370",630
120.36831,37.984627,"975 MORNING STAR DR ,SONORA,CA,95370",631
120.36894,37.98745,"940 SYLVA LN ,SONORA,CA,95370",632
120.33402,38.001392,"20811 UPPER HILLVIEW DR ,SONORA,CA,95370",633
120.32269,37.996155,"14664 DEON DR ,SONORA,CA,95370",634
120.32375,37.997456,"20605 RESORT RD ,SONORA,CA,95370",635
120.323,37.99604,"14691 DEON DR ,SONORA,CA,95370",636
120.32407,37.997772,"20640 RESORT RD ,SONORA,CA,95370",637
120.32127,37.996372,"20621 LORI LN ,SONORA,CA,95370",638
120.33069,37.987446,"20145 PHOENIX LAKE RD ,SONORA,CA,95370",639
120.32353,37.992329,"20329 SOMMETTE DR ,SONORA,CA,95370",640
120.32656,37.990887,"20350 MIDLAND DR ,SONORA,CA,95370",641
120.20589,38.052822,"19852 GREENVIEW DR ,TWAIN HARTE,CA,95383",642
120.20513,38.053341,"19879 GREENVIEW DR ,TWAIN HARTE,CA,95383",643
120.20536,38.052963,"19854 WANITA LN ,TWAIN HARTE,CA,95383",644
120.22287,38.020027,"21934 CEDAR SPRINGS RD ,TWAIN HARTE,CA,95383",645
120.22222,38.018089,"21849 CONFIDENCE RD ,TWAIN HARTE,CA,95383",646
120.22149,38.016933,"21761 CEDAR SPRINGS RD ,TWAIN HARTE,CA,95383",647
120.21864,38.018215,"21859 CONFIDENCE RD ,TWAIN HARTE,CA,95383",648
120.21842,38.014008,"21625 MOUNT PROVO RD ,TWAIN HARTE,CA,95383",649
120.22169,38.020344,"21806 CONFIDENCE RD ,TWAIN HARTE,CA,95383",650
120.22298,38.024986,"22140 CEDAR SPRINGS RD ,TWAIN HARTE,CA,95383",651
120.22337,38.022202,"22051 N TUOLUMNE RD ,TWAIN HARTE,CA,95383",652
120.22495,38.02422,"22142 N TUOLUMNE RD ,TWAIN HARTE,CA,95383",653
120.22665,38.01371,"21637 SLOPE LN ,TWAIN HARTE,CA,95383",654
120.22652,38.013351,"21605 CEDAR SPRINGS RD ,TWAIN HARTE,CA,95383",655
120.2265,38.013363,"21625 CEDAR SPRINGS RD ,TWAIN HARTE,CA,95383",656
120.22373,38.031498,"22511 N TUOLUMNE RD ,TWAIN HARTE,CA,95383",657
120.2243,38.028046,"22358 ROBIN HOOD DR ,TWAIN HARTE,CA,95383",658
120.22448,38.029106,"22476 N TUOLUMNE RD ,TWAIN HARTE,CA,95383",659
120.22405,38.026421,"22356 N TUOLUMNE RD ,TWAIN HARTE,CA,95383",660
120.25745,38.027382,"22348 LONGEWAY RD ,SONORA,CA,95370",661
120.25147,38.029285,"22423 S FORK RD ,SONORA,CA,95370",662
120.26588,38.032734,"17102 NILE RIVER DR ,SONORA,CA,95370",663
120.26559,38.034122,"17140 NILE RIVER DR ,SONORA,CA,95370",664
120.26212,38.034271,"17176 NILE RIVER DR ,SONORA,CA,95370",665
120.27437,38.017532,"16596 CREEKSIDE DR ,SONORA,CA,95370",666
120.27538,38.019035,"21873 PHOENIX LAKE RD ,SONORA,CA,95370",667
120.27298,38.017899,"21819 FALLVIEW DR ,SONORA,CA,95370",668
120.27509,38.021397,"21993 FALLVIEW DR ,SONORA,CA,95370",669
120.27336,38.019825,"21942 GLENWOOD RD ,SONORA,CA,95370",670
120.27295,38.019768,"21931 GLENWOOD RD ,SONORA,CA,95370",671
120.27189,38.020134,"21889 FALLVIEW DR ,SONORA,CA,95370",672
120.27221,38.022942,"16890 E MEADOW LN ,SONORA,CA,95370",673
120.28024,38.013966,"16542 SALLANDER DR ,SONORA,CA,95370",674
120.27817,38.016033,"16598 SALLANDER DR ,SONORA,CA,95370",675
120.27975,38.015121,"16561 SALLANDER DR ,SONORA,CA,95370",676
120.27641,38.015064,"16682 SALLANDER DR ,SONORA,CA,95370",677
120.27545,38.016068,"16725 SALLANDER DR ,SONORA,CA,95370",678
120.27591,38.00631,"21212 RIDGEVIEW DR ,SONORA,CA,95370",679
120.27563,38.006153,"21137 RIDGEVIEW DR ,SONORA,CA,95370",680
120.272,38.006454,"21199 CRESTVIEW DR ,SONORA,CA,95370",681
120.2719,38.010616,"21398 CRESTVIEW DR ,SONORA,CA,95370",682
120.27404,38.011112,"21437 GREEN OAKS CT ,SONORA,CA,95370",683
120.27269,38.00816,"21260 CRESTVIEW DR ,SONORA,CA,95370",684
120.274,38.010311,"21325 EVERGREEN WAY ,SONORA,CA,95370",685
120.34771,37.988895,"20132 HIGH MEADOW DR ,SONORA,CA,95370",686
120.36805,37.977993,"12720 ROBINIA CIR 33,SONORA,CA,95370",687
120.33405,37.980766,"19753 PHOENIX LAKE RD ,SONORA,CA,95370",688
120.3251,37.979076,"14587 PEACEFUL VALLEY RD ,SONORA,CA,95370",689
120.18072,38.070248,"24755 STATE HIGHWAY 108 ,MI WUK VILLAGE,CA,95346",690
120.18374,38.061039,"24228 LAMA CT ,,CA,95346",691
120.19096,38.066284,"24500 STATE HWY 108 ,TWAIN HARTE,CA,95383",692
120.20431,38.04047,"23085 CONFIDENCE RD ,TWAIN HARTE,CA,95383",693
120.19723,38.057907,"24083 PINE LAKE DR ,TWAIN HARTE,CA,95383",694
120.26132,38.028259,"17316 SMOKEY RIVER DR ,SONORA,CA,95370",695
120.27182,38.021229,"21913 FALLVIEW DR ,SONORA,CA,95370",696
120.27405,38.012493,"16801 S CREEKSIDE DR ,SONORA,CA,95370",697
120.26725,38.030617,"17030 BIG FALLS TRL ,SONORA,CA,95370",698
120.30704,38.053417,"15250 OLD OAK RANCH RD ,SONORA,CA,95370",699
120.33596,38.045773,"14085 GREY FOX RD ,SONORA,CA,95370",700
120.37203,38.045959,"12471 YANKEE HILL RD ,COLUMBIA,CA,95310",701
120.32928,38.000435,"14344 LAKE VISTA DR ,SONORA,CA,95370",702
120.28036,38.017269,"21720 PHOENIX LAKE RD ,SONORA,CA,95370",703
120.43278,38.000481,"9892 PORTAGEE LN ,SONORA,CA,95370",704
120.40469,38.049335,"23510 BREWSTER DR ,COLUMBIA,CA,95310",705
120.31796,37.976662,"14879 MONO WAY ,SONORA,CA,95370",706
120.18587,37.850254,"12539 PINE BROOK WAY ,GROVELAND,CA,95321",707
120.22573,37.855698,"19252 FERRETTI RD ,GROVELAND,CA,95321",708
120.20548,37.859802,"19780 COTTONWOOD ST ,GROVELAND,CA,95321",709
120.20901,37.858772,"19698 COTTONWOOD ST ,GROVELAND,CA,95321",710
120.15232,38.083775,"25470 REBEKAH RD ,,CA,95335",711
120.15168,38.081535,"25341 ESTHER AVE ,LONG BARN,CA,95335",712
120.15216,38.081375,"25342 ESTHER AVE ,LONG BARN,CA,95335",713
120.15308,38.082291,"25364 REBEKAH RD ,,CA,95335",714
120.15274,38.079578,"25244 REBEKAH RD ,,CA,95335",715
120.15267,38.078506,"25197 REBEKAH RD ,LONG BARN,CA,95335",716
120.42793,38.051559,"23787 PARROTTS FERRY RD ,COLUMBIA,CA,95310",717
120.38141,38.059284,"24115 ITALIAN BAR RD ,COLUMBIA,CA,95310",718
120.38628,37.994846,"264 MCCORMICK DR ,SONORA,CA,95370",719
120.39042,38.0019,"1400 SHAWS FLAT RD ,SONORA,CA,95370",720
120.39359,38.002552,"20924 SHAWS FLAT RD ,SONORA,CA,95370",721
120.39037,37.997955,"222 SARATOGA RD ,SONORA,CA,95370",722
120.39385,38.019058,"21862 SAWMILL FLAT RD ,SONORA,CA,95370",723
120.38768,37.9991,"1141 SHAWS FLAT RD ,SONORA,CA,95370",724
120.38298,38.019508,"21845 GOOD LUCK MINE RD ,SONORA,CA,95370",725
120.3866,37.999271,"156 CORTE DEL ENCINO ,SONORA,CA,95370",726
120.38871,38.00222,"95 ROBLE RD ,SONORA,CA,95370",727
120.38833,38.000923,"44 ROBLE RD ,SONORA,CA,95370",728
120.39153,37.987938,"165 ARBONA CIR S ,SONORA,CA,95370",729
120.39149,37.987484,"248 ARBONA CIR S ,SONORA,CA,95370",730
120.39495,37.9883,"307 ARBONA CIR N ,SONORA,CA,95370",731
120.39326,37.988586,"746 ARBONA CIR N ,SONORA,CA,95370",732
120.39234,37.987965,"20 ARBONA CIR S ,SONORA,CA,95370",733
120.39395,37.990341,"626 ARBONA CIR N ,SONORA,CA,95370",734
120.39498,37.990509,"525 DRAGOON CIR ,SONORA,CA,95370",735
120.25423,38.053558,"17714 MOUNT ELIZABETH DR ,SONORA,CA,95370",736
120.25906,38.058498,"17437 MOUNT ELIZABETH DR ,SONORA,CA,95370",737
120.25114,38.03812,"22915 SUNNYBROOK DR ,SONORA,CA,95370",738
120.25224,38.043594,"23196 QUAIL DR ,TWAIN HARTE,CA,95383",739
120.39878,37.960087,"18717 MILL VILLA RD 129,JAMESTOWN,CA,95327",740
120.39918,37.961121,"18717 MILL VILLA RD 112,JAMESTOWN,CA,95327",741
120.39846,37.958054,"18717 MILL VILLA RD 161,JAMESTOWN,CA,95327",742
120.39876,37.958549,"18717 MILL VILLA RD 249,JAMESTOWN,CA,95327",743
120.39861,37.959145,"18717 MILL VILLA RD 144,JAMESTOWN,CA,95327",744
120.42297,37.922352,"16565 DUTCH MINE RD ,JAMESTOWN,CA,95327",745
120.41136,37.899193,"15506 JUMPER MINE RD ,JAMESTOWN,CA,95327",746
120.42483,37.927715,"16821 CINDY CT ,JAMESTOWN,CA,95327",747
120.32528,37.975651,"19468 HILLSDALE DR ,SONORA,CA,95370",748
120.32712,37.974277,"19384 HILLSDALE DR ,SONORA,CA,95370",749
120.32568,37.975227,"19451 HILLSDALE DR ,SONORA,CA,95370",750
120.32626,37.975048,"14504 STONE LN ,SONORA,CA,95370",751
120.32491,37.974911,"14565 OAKWOOD CT ,SONORA,CA,95370",752
120.32296,37.974903,"14661 STONE LN ,SONORA,CA,95370",753
120.32535,37.97258,"19263 HILLSDALE DR ,SONORA,CA,95370",754
120.3259,37.974026,"14541 STONE LN ,SONORA,CA,95370",755
120.32443,37.972588,"19264 ROCKRIDGE WAY ,SONORA,CA,95370",756
120.31866,37.974575,"19401 INDUSTRIAL DR ,SONORA,CA,95370",757
120.3241,37.973824,"14670 STONE LN ,SONORA,CA,95370",758
120.32212,37.971294,"19277 SUSAN WAY ,SONORA,CA,95370",759
120.26043,37.953609,"18359 HERSHEY RD E ,TUOLUMNE,CA,95379",760
120.27245,38.053829,"23808 OXBOW LN S ,SONORA,CA,95370",761
120.27242,38.054825,"23894 OXBOW LN S ,SONORA,CA,95370",762
120.26954,38.054199,"23891 OXBOW LN S ,SONORA,CA,95370",763
120.2298,38.055786,"23880 SIERRA PINES DR ,TWAIN HARTE,CA,95383",764
120.41383,37.948399,"18120 GOLDEN OAKS DR ,JAMESTOWN,CA,95327",765
120.32695,37.973759,"19316 GRANDVIEW CT ,SONORA,CA,95370",766
120.32171,37.97263,"19340 SUSAN WAY ,SONORA,CA,95370",767
120.2665,37.947258,"17901 SADDLE DR ,TUOLUMNE,CA,95379",768
120.49891,37.89426,"14670 STATE HIGHWAY 108 ,JAMESTOWN,CA,95327",769
120.58491,37.835461,"11101 STATE HIGHWAY 108 120,JAMESTOWN,CA,95327",770
120.45242,37.875225,"9075 FRIENDSHIP HILL RD ,JAMESTOWN,CA,95327",771
120.1558,37.848526,"22025 FERRETTI RD ,GROVELAND,CA,95321",772
120.26801,37.975502,"17090 MONTE GRANDE DR ,SOULSBYVILLE,CA,95372",773
120.32387,37.674179,"2730 PEPITO DR ,LA GRANGE,CA,95329",774
120.34741,37.727142,"5690 ARBOLADA DR ,LA GRANGE,CA,95329",775
120.27251,38.056366,"23955 HITCHING POST RD ,SONORA,CA,95370",776
120.26843,38.005787,"17000 OAKTREE LN ,SONORA,CA,95370",777
120.27023,38.009541,"16963 COLUMBIA RIVER DR ,SONORA,CA,95370",778
120.27142,38.016376,"21702 CRYSTAL FALLS DR WE,SONORA,CA,95370",779
120.27686,38.032333,"22629 MEADOW LN ,SONORA,CA,95370",780
120.21561,38.052074,"19372 SUPERIOR DR ,TWAIN HARTE,CA,95383",781
120.21623,38.051041,"19282 SUPERIOR DR ,TWAIN HARTE,CA,95383",782
120.20908,38.055824,"19635 MICHIGAN DR ,TWAIN HARTE,CA,95383",783
120.36343,37.97662,"19565 ROSELYN LN ,SONORA,CA,95370",784
120.36154,37.978287,"19606 PINE RD ,SONORA,CA,95370",785
120.36267,37.97646,"12912 MOUNTAIN VIEW RD ,SONORA,CA,95370",786
120.36069,37.979115,"13009 OAK RD ,SONORA,CA,95370",787
120.37684,37.991123,"652 CIELO VISTA WAY ,SONORA,CA,95370",788
120.3754,37.990707,"493 E BALD MOUNTAIN RD ,SONORA,CA,95370",789
120.35992,37.981232,"19745 PINE RD ,SONORA,CA,95370",790
120.34198,37.982258,"19831 IVY LN ,SONORA,CA,95370",791
120.36533,37.9865,"12801 CABEZUT RD ,SONORA,CA,95370",792
120.36442,37.991871,"12820 CHUKAR CIR ,SONORA,CA,95370",793
120.36257,37.985786,"12833 BECKWITH CIR ,SONORA,CA,95370",794
120.36299,37.983952,"12911 BECKWITH CIR ,SONORA,CA,95370",795
120.36018,37.985077,"13075 BECKWITH CIR ,SONORA,CA,95370",796
120.36256,37.984962,"19989 LANE CT ,SONORA,CA,95370",797
120.35978,37.985722,"13045 SYLVA LN ,SONORA,CA,95370",798
120.23109,38.043262,"18671 CHEROKEE DR ,TWAIN HARTE,CA,95383",799
120.23116,38.042622,"18682 COLUMBIA DR ,TWAIN HARTE,CA,95383",800
120.22331,38.032204,"22694 ROBIN HOOD DR ,TWAIN HARTE,CA,95383",801
120.22044,38.032948,"22598 ROBIN HOOD DR ,TWAIN HARTE,CA,95383",802
120.21938,38.03286,"19183 FALLEN LEAF LN ,TWAIN HARTE,CA,95383",803
120.22089,38.033997,"19192 KING ARTHURS CT ,TWAIN HARTE,CA,95383",804
120.22009,38.033321,"19198 FALLEN LEAF LN ,TWAIN HARTE,CA,95383",805
120.25779,38.021523,"17560 HIDDEN CREEK CT ,SONORA,CA,95370",806
120.26545,38.025307,"22243 COLORADO RIVER DR SOUT,SONORA,CA,95370",807
120.25274,38.030201,"22501 WILDCAT RIDGE RD ,SONORA,CA,95370",808
120.24846,38.026543,"17953 GOOD SHEPHERD DR ,SONORA,CA,95370",809
120.25345,38.024258,"17730 LUCKY STRIKE TRL ,SONORA,CA,95370",810
120.25324,38.024345,"17769 LUCKY STRIKE TRL ,SONORA,CA,95370",811
120.25298,38.024139,"17799 LUCKY STRIKE TRL ,SONORA,CA,95370",812
120.25543,38.021378,"22001 LONGEWAY RD ,SONORA,CA,95370",813
120.25361,38.021816,"22040 FAIR OAKS CT ,SONORA,CA,95370",814
120.26227,38.007736,"17246 OVERLAND TRL ,SONORA,CA,95370",815
120.2611,38.005756,"21190 WESSLING LN ,SONORA,CA,95370",816
120.21911,38.012054,"19298 TANGLEWOD TRL ,TWAIN HARTE,CA,95383",817
120.23027,38.026951,"18688 CHERYL WAY ,TWAIN HARTE,CA,95383",818
120.2289,38.027866,"22320 SANGER CT ,,CA,95383",819
120.2122,37.850342,"19425 PLEASANTVIEW DR ,GROVELAND,CA,95321",820
120.20248,37.853989,"20011 DUNN CT ,GROVELAND,CA,95321",821
120.22319,37.85244,"19048 DYER CT ,GROVELAND,CA,95321",822
120.29927,38.021343,"15690 ALLENBY DR ,SONORA,CA,95370",823
120.28293,38.019127,"21850 BELLEVIEW RD 60,SONORA,CA,95370",824
120.2832,38.01992,"21850 BELLEVIEW RD 49,SONORA,CA,95370",825
120.28227,38.019543,"21850 BELLEVIEW RD 31,SONORA,CA,95370",826
120.27804,38.006046,"16555 WHITE OAK DR ,SONORA,CA,95370",827
120.27898,38.008549,"16525 HABITAT TRL ,SONORA,CA,95370",828
120.28732,38.017944,"16170 ACORN DR ,SONORA,CA,95370",829
120.28931,38.017056,"21762 WHITE THORN WAY ,SONORA,CA,95370",830
120.28685,38.016785,"21758 HYDE ST ,SONORA,CA,95370",831
120.28718,38.015934,"21699 HYDE ST ,SONORA,CA,95370",832
120.28941,38.016235,"21695 FORTUNA MINE RD ,SONORA,CA,95370",833
120.28905,38.015182,"16100 SIRUS MINE LN ,SONORA,CA,95370",834
120.28832,38.013752,"16175 COMET MINE CT ,SONORA,CA,95370",835
120.22921,37.995041,"20691 PONDEROSA WAY ,TUOLUMNE,CA,95379",836
120.22745,37.995338,"20592 CANYONVIEW DR ,TUOLUMNE,CA,95379",837
120.22662,37.994522,"20520 DEERHAVEN DR ,TUOLUMNE,CA,95379",838
120.22517,37.99342,"20561 DEERHAVEN DR ,TUOLUMNE,CA,95379",839
120.21251,37.862087,"19561 COTTONWOOD ST ,GROVELAND,CA,95321",840
120.20732,37.86235,"19645 FERRETTI RD ,GROVELAND,CA,95321",841
120.18946,37.854286,"20386 PINE MOUNTAIN DR ,GROVELAND,CA,95321",842
120.19122,37.854946,"12801 BOITANO RD ,GROVELAND,CA,95321",843
120.19479,37.853275,"20458 ROCK CANYON WAY ,GROVELAND,CA,95321",844
120.1945,37.853497,"20427 ROCK CANYON WAY ,GROVELAND,CA,95321",845
120.19506,37.853348,"20478 ROCK CANYON WAY ,GROVELAND,CA,95321",846
120.19256,37.853123,"20312 PINE MOUNTAIN DR ,GROVELAND,CA,95321",847
120.19241,37.85231,"20291 PINE MOUNTAIN DR ,GROVELAND,CA,95321",848
120.17939,37.853062,"12755 CRESTHAVEN DR ,GROVELAND,CA,95321",849
120.18388,37.854034,"20772 CRESCENT WAY ,GROVELAND,CA,95321",850
120.18264,37.852856,"20811 ROCK CANYON WAY ,GROVELAND,CA,95321",851
120.19013,37.851181,"20271 PINE MOUNTAIN DR ,GROVELAND,CA,95321",852
120.18583,37.852531,"12632 CRESTHAVEN DR ,GROVELAND,CA,95321",853
120.18702,37.851925,"12597 CRESTHAVEN DR ,GROVELAND,CA,95321",854
120.18182,37.851566,"12701 CRESTHAVEN DR ,GROVELAND,CA,95321",855
120.1847,37.849716,"12505 PINE BROOK WAY ,GROVELAND,CA,95321",856
120.18164,37.850636,"12698 EAGLE CT ,GROVELAND,CA,95321",857
120.40263,37.994381,"11133 FALLON DR ,SONORA,CA,95370",858
120.40765,37.99617,"10887 MARTIN TERRACE CT ,SONORA,CA,95370",859
120.32211,37.960773,"18851 MICRO-TRONICS WAY ,,CA,95370",860
120.32193,37.959915,"18859 MICROTRONICS WAY ,SONORA,CA,95370",861
120.3218,37.960499,"18855 MICROTRONICS WAY ,SONORA,CA,95370",862
120.33427,37.968941,"19055 KODIAK CT ,SONORA,CA,95370",863
120.43073,37.976345,"19485 PEPPERMINT FALLS RD ,JAMESTOWN,CA,95327",864
120.26775,37.992851,"17057 CLOUDS REST RD ,SOULSBYVILLE,CA,95372",865
120.40645,37.885376,"14450 JACKSONVILLE RD ,JAMESTOWN,CA,95327",866
120.23873,37.958218,"18522 MAIN ST ,TUOLUMNE,CA,95379",867
120.39964,38.000198,"11285 ARNO WAY ,SONORA,CA,95370",868
120.41399,37.988861,"20228 CLAVEY CT ,SONORA,CA,95370",869
120.41328,37.988815,"20224 STANISLAUS DR ,SONORA,CA,95370",870
120.43359,37.969208,"9790 O NEIL CT ,JAMESTOWN,CA,95327",871
120.42622,37.941059,"17550 FERNWOOD DR ,JAMESTOWN,CA,95327",872
120.04964,38.157768,"29643 KERNS DR ,LONG BARN,CA,95335",873
120.36773,37.979321,"12700 RED MAPLE CIR 5,SONORA,CA,95370",874
120.36491,37.978653,"12700 RED MAPLE CIR 23,SONORA,CA,95370",875
120.36491,37.978653,"12700 RED MAPLE CIR 36,SONORA,CA,95370",876
120.36491,37.978653,"12700 RED MAPLE CIR 41,SONORA,CA,95370",877
120.36805,37.977993,"12720 ROBINIA CIR 34,SONORA,CA,95370",878
120.32935,37.99131,"20298 PHOENIX LAKE RD ,SONORA,CA,95370",879
120.33379,37.989388,"14196 OAK KNOLL RD ,SONORA,CA,95370",880
120.32658,37.985321,"19980 SOMMETTE DR ,SONORA,CA,95370",881
120.32274,37.983852,"19832 SOMMETTE DR ,SONORA,CA,95370",882
120.3298,37.986172,"14386 EXPEDITION DR ,SONORA,CA,95370",883
120.33066,37.983639,"19867 PHOENIX LAKE RD ,SONORA,CA,95370",884
120.33437,37.98093,"19746 PHOENIX LAKE RD ,SONORA,CA,95370",885
120.3325,37.994648,"20512 BROOK DR ,SONORA,CA,95370",886
120.33356,37.994144,"14175 ALDER LN ,SONORA,CA,95370",887
120.33266,37.991356,"20425 BROOK DR ,SONORA,CA,95370",888
120.33332,37.990353,"20375 BROOK DR ,SONORA,CA,95370",889
120.33486,37.991604,"20331 TURNER CT ,SONORA,CA,95370",890
120.3338,37.990192,"20357 BROOK DR ,SONORA,CA,95370",891
120.33572,37.994095,"20499 UPPER HILLVIEW DR ,SONORA,CA,95370",892
120.33545,37.993935,"20474 UPPER HILLVIEW DR ,SONORA,CA,95370",893
120.33102,37.996174,"14214 ALDER LN ,SONORA,CA,95370",894
120.3306,37.997906,"14345 SANDY CT ,SONORA,CA,95370",895
120.32523,37.977947,"14580 MONO WAY ,SONORA,CA,95370",896
120.28811,38.00119,"20858 CRESTWOOD CT ,SONORA,CA,95370",897
120.38015,37.977573,"610 S WASHINGTON ST ,SONORA,CA,95370",898
120.38049,37.976452,"40 BULWER ST ,SONORA,CA,95370",899
120.35207,37.972183,"13382 TERRACE DR ,SONORA,CA,95370",900
120.38341,37.952614,"18128 CALLE OESTE RD ,SONORA,CA,95370",901
120.38536,37.948978,"17974 CALLE OESTE RD ,SONORA,CA,95370",902
120.38335,37.947689,"17945 VIA SERENA RD ,SONORA,CA,95370",903
120.35851,37.949173,"18101 JACOBS RD ,SONORA,CA,95370",904
120.34562,37.967869,"13630 JOSHUA WAY ,SONORA,CA,95370",905
120.33954,37.967655,"19041 CALEB CT ,SONORA,CA,95370",906
120.46218,37.948265,"17940 SHELL RD ,JAMESTOWN,CA,95327",907
120.44361,37.938976,"17430 HIGH SCHOOL RD ,JAMESTOWN,CA,95327",908
120.45299,37.966724,"8975 FRENCH FLAT RD ,JAMESTOWN,CA,95327",909
120.43183,37.972775,"9950 PEPPERMINT CIR ,JAMESTOWN,CA,95327",910
120.47984,37.965122,"7770 RUTH RIDGE RD ,JAMESTOWN,CA,95327",911
120.42422,37.969334,"10155 PEPPERMINT CIR 50,JAMESTOWN,CA,95327",912
120.42422,37.969334,"10155 PEPPERMINT CIR 46,JAMESTOWN,CA,95327",913
120.2779,38.013111,"16521 CREEKSIDE DR ,SONORA,CA,95370",914
120.27579,38.014378,"16542 CREEKSIDE DR ,SONORA,CA,95370",915
120.27362,38.017242,"16570 CREEKSIDE DR ,SONORA,CA,95370",916
120.27209,38.016151,"16577 CREEKSIDE DR ,SONORA,CA,95370",917
120.27462,38.017685,"16605 CREEKSIDE DR ,SONORA,CA,95370",918
120.27204,38.016197,"16583 CREEKSIDE DR ,SONORA,CA,95370",919
120.37791,38.040699,"12270 YANKEE HILL RD ,COLUMBIA,CA,95310",920
120.33421,38.016483,"21775 LYONS BALD MOUNTAIN RD ,SONORA,CA,95370",921
120.30244,38.017342,"15567 CORTE LAGUNA VIS ,SONORA,CA,95370",922
120.3334,38.031982,"22410 LYONS BALD MOUNTAIN RD ,SONORA,CA,95370",923
120.31552,38.01458,"21600 MONTGOMERY RD ,SONORA,CA,95370",924
120.3101,38.017746,"21750 RENEE CT ,SONORA,CA,95370",925
120.29694,38.006416,"21313 PHOENIX LAKE RD ,SONORA,CA,95370",926
120.30936,38.004684,"15269 MCKAMEY CT ,SONORA,CA,95370",927
120.30856,38.004673,"21090 PHOENIX LAKE RD ,SONORA,CA,95370",928
120.30593,38.006611,"21200 PHOENIX LAKE RD ,SONORA,CA,95370",929
120.30257,38.007935,"21259 PASEO DE LOS PORTALES RD ,,CA,95370",930
120.29907,38.009262,"21308 PHOENIX LAKE RD ,SONORA,CA,95370",931
120.30588,38.009472,"15379 CAMINO DEL PARQUE RD N ,SONORA,CA,95370",932
120.30618,38.009674,"15362 CAMINO DEL PARQUE RD N ,SONORA,CA,95370",933
120.30756,38.007305,"15321 CAMINO DEL PARQUE RD N ,SONORA,CA,95370",934
120.30495,38.009724,"15449 CAMINO DEL PARQUE RD N ,SONORA,CA,95370",935
120.43825,37.874607,"9737 STATE HIGHWAY 120 ,JAMESTOWN,CA,95327",936
120.17914,37.848179,"20786 BIG FOOT CIR ,GROVELAND,CA,95321",937
120.20448,37.847492,"12328 MILLS ST ,GROVELAND,CA,95321",938
120.19043,37.84063,"20043 PINE MOUNTAIN DR ,GROVELAND,CA,95321",939
120.22391,37.839981,"19010 STATE HWY 120 ,GROVELAND,CA,95321",940
120.23484,37.961174,"18521 BAY AVE ,TUOLUMNE,CA,95379",941
120.40038,37.957443,"18717 MILL VILLA RD 604,JAMESTOWN,CA,95327",942
120.39568,37.961582,"18633 VISTA DR ,JAMESTOWN,CA,95327",943
120.39698,37.959793,"11363 STEINER DR ,JAMESTOWN,CA,95327",944
120.39648,37.95874,"18518 VISTA DR ,JAMESTOWN,CA,95327",945
120.39718,37.959049,"18529 WELL HOUSE DR ,JAMESTOWN,CA,95327",946
120.32839,38.05077,"14344 REDWOOD WAY ,SONORA,CA,95370",947
120.22494,37.992458,"20585 PONDEROSA WAY ,TUOLUMNE,CA,95379",948
120.2651,37.994827,"20485 SOULSBYVILLE RD ,SOULSBYVILLE,CA,95372",949
120.22573,37.855698,"19252 FERRETTI RD ,GROVELAND,CA,95321",950
120.37864,37.984676,"197 THEALL ST ,SONORA,CA,95370",951
120.37833,37.98494,"219 THEALL ST ,SONORA,CA,95370",952
120.37975,37.98521,"123 E DODGE LN ,SONORA,CA,95370",953
120.3791,37.985119,"206 ROSE ST ,SONORA,CA,95370",954
120.38887,37.983006,"58 ASH ST ,SONORA,CA,95370",955
120.38823,37.983475,"38 N POPLAR ST ,SONORA,CA,95370",956
120.38802,37.983337,"303 YANEY AVE ,SONORA,CA,95370",957
120.38862,37.98399,"67 N POPLAR ST ,SONORA,CA,95370",958
120.38732,37.983692,"251 YANEY AVE ,SONORA,CA,95370",959
120.38721,37.983925,"73 ELM ST ,SONORA,CA,95370",960
120.3863,37.984531,"176 YANEY AVE ,SONORA,CA,95370",961
120.38731,37.982536,"24 S POPLAR ST ,SONORA,CA,95370",962
120.38618,37.983391,"198 BRADFORD ST ,SONORA,CA,95370",963
120.38424,37.983189,"60 PINE ST ,,CA,95370",964
120.38432,37.984638,"73 W JACKSON ST ,SONORA,CA,95370",965
120.38399,37.984573,"56 BRADFORD ST ,SONORA,CA,95370",966
120.38171,37.988575,"170 SUMMIT AVE ,SONORA,CA,95370",967
120.38127,37.988178,"38 MONTE VISTA LN ,SONORA,CA,95370",968
120.38171,37.988209,"30 ALLEY WAY ,SONORA,CA,95370",969
120.23344,37.968845,"19088 TUOLUMNE RD N ,TUOLUMNE,CA,95379",970
120.23397,37.96627,"18516 WOOLWORTH ST ,TUOLUMNE,CA,95379",971
120.23462,37.966534,"18965 CARTER ST ,TUOLUMNE,CA,95379",972
120.23466,37.965988,"18903 MADRONE ST ,TUOLUMNE,CA,95379",973
120.23605,37.962318,"18665 CARTER ST ,TUOLUMNE,CA,95379",974
120.23524,37.961311,"18664 MADRONE ST ,TUOLUMNE,CA,95379",975
120.23489,37.962082,"18677 MADRONE ST ,TUOLUMNE,CA,95379",976
120.23925,37.961464,"18364 BAY AVE ,TUOLUMNE,CA,95379",977
120.23756,37.959019,"18530 PINE ST ,TUOLUMNE,CA,95379",978
120.23963,37.959347,"18525 OAK ST ,TUOLUMNE,CA,95379",979
120.23759,37.961727,"18659 PINE ST ,TUOLUMNE,CA,95379",980
120.23489,37.961838,"18623 MADRONE ST ,TUOLUMNE,CA,95379",981
120.23376,37.961994,"18701 CEDAR ST ,TUOLUMNE,CA,95379",982
120.38422,37.983353,"130 W STOCKTON ST ,SONORA,CA,95370",983
120.39462,37.987095,"539 ALPINE LN ,SONORA,CA,95370",984
120.39098,37.985973,"351 ALPINE LN ,SONORA,CA,95370",985
120.31379,37.98394,"19915 TRACE RD ,SONORA,CA,95370",986
120.29774,37.989464,"20258 HAYSTACK RD ,SONORA,CA,95370",987
120.37174,37.988869,"832 E OAKSIDE DR ,SONORA,CA,95370",988
120.22936,38.052944,"18770 BROADHURST DR ,TWAIN HARTE,CA,95383",989
120.22723,38.050781,"18900 MIDDLE CAMP SUGAR PINE RD ,TWAIN HARTE,CA,95383",990
120.22849,38.051174,"18774 MIDDLE CAMP SUGAR PINE RD ,TWAIN HARTE,CA,95383",991
120.22829,38.051399,"18832 MIDDLE CAMP SUGAR PINE RD ,TWAIN HARTE,CA,95383",992
120.22803,38.050907,"18827 MIDDLE CAMP SUGAR PINE RD ,TWAIN HARTE,CA,95383",993
120.23457,38.054955,"23875 MARSHALL WAY ,TWAIN HARTE,CA,95383",994
120.23447,38.054638,"23862 MARSHALL WAY ,TWAIN HARTE,CA,95383",995
120.23405,38.053383,"23672 KIT CARSON DR ,TWAIN HARTE,CA,95383",996
120.23486,38.052979,"23718 FREMONT WAY ,TWAIN HARTE,CA,95383",997
120.24016,38.037731,"22890 RED WING TRL ,TWAIN HARTE,CA,95383",998
120.24635,38.041744,"17996 LARAMIE LN ,TWAIN HARTE,CA,95383",999
120.2476,38.040436,"17916 LARAMIE LN ,TWAIN HARTE,CA,95383",1000
120.24461,38.040863,"18073 BONANZA DR ,TWAIN HARTE,CA,95383",1001
120.24632,38.045296,"23295 MIDDLE CAMP RD ,TWAIN HARTE,CA,95383",1002
120.24537,38.046337,"23357 MIDDLE CAMP RD ,TWAIN HARTE,CA,95383",1003
120.24282,38.060322,"24243 MT ELIZABETH RD ,,CA,95383",1004
120.23219,38.048401,"23328 LAKEWOOD DR ,TWAIN HARTE,CA,95383",1005
120.22746,38.048767,"23420 LAKEWOOD DR ,TWAIN HARTE,CA,95383",1006
120.18375,38.059414,"20751 HAIAPO RD ,MI WUK VILLAGE,CA,95346",1007
120.1797,38.063297,"20910 MUHELI RD ,,CA,95346",1008
120.17832,38.063698,"20911 MUHELI RD ,,CA,95346",1009
120.2003,38.047276,"23500 KREITZER WAY ,TWAIN HARTE,CA,95383",1010
120.20251,38.0457,"23362 COFFILL RD ,TWAIN HARTE,CA,95383",1011
120.20024,38.046944,"20059 DAVIS FLAT RD ,TWAIN HARTE,CA,95383",1012
120.20202,38.051235,"23685 STATE HIGHWAY 108 ,TWAIN HARTE,CA,95383",1013
120.19741,38.058578,"24110 WHITE FIR DR ,TWAIN HARTE,CA,95383",1014
120.19431,38.060459,"20270 LILAC LN ,,CA,95383",1015
120.19699,38.058559,"24077 WHITE FIR DR ,TWAIN HARTE,CA,95383",1016
120.19652,38.058197,"24071 GOLF LINKS DR ,TWAIN HARTE,CA,95383",1017
120.19463,38.057945,"24045 PINE CONE RD ,TWAIN HARTE,CA,95383",1018
120.1965,38.056103,"23955 PINE LAKE DR ,TWAIN HARTE,CA,95383",1019
120.1966,38.057751,"24018 PINE CONE RD ,TWAIN HARTE,CA,95383",1020
120.19875,38.057159,"24027 PINE LAKE DR ,TWAIN HARTE,CA,95383",1021
120.19813,38.056435,"23996 PINE LAKE DR ,TWAIN HARTE,CA,95383",1022
120.19768,38.054337,"23941 REDWOOD CT ,TWAIN HARTE,CA,95383",1023
120.20721,38.054329,"19824 GREENVIEW DR ,TWAIN HARTE,CA,95383",1024
120.20605,38.053555,"23826 HILLTOP CIR ,TWAIN HARTE,CA,95383",1025
120.23642,37.95863,"18506 CARTER ST ,TUOLUMNE,CA,95379",1026
120.23524,37.959358,"18556 MADRONE ST ,TUOLUMNE,CA,95379",1027
120.23607,37.958771,"18515 CARTER ST ,TUOLUMNE,CA,95379",1028
120.05269,38.156815,"29564 YUBA CT ,COLD SPRINGS,CA,95335",1029
120.38531,37.992897,"52 RUTH LN ,SONORA,CA,95370",1030
120.38412,37.993931,"138 STEFFEN LN ,SONORA,CA,95370",1031
120.22,38.057175,"24135 S FORK RD ,TWAIN HARTE,CA,95383",1032
120.22195,38.06274,"24887 CENTER CAMP RD ,TWAIN HARTE,CA,95383",1033
120.2912,37.977558,"19639 GRACE WAY ,SONORA,CA,95370",1034
120.29418,37.978348,"19630 GRACE WAY ,SONORA,CA,95370",1035
120.28901,37.979702,"19656 HACIENDA HEIGHTS RD ,SONORA,CA,95370",1036
120.32301,37.978401,"14610 MONO WAY 67,SONORA,CA,95370",1037
120.32204,37.977859,"14610 MONO WAY ,SONORA,CA,95370",1038
120.32246,37.978477,"14610 MONO WAY 60,SONORA,CA,95370",1039
120.32069,37.987644,"20008 DAMBACHER DR ,SONORA,CA,95370",1040
120.35848,38.000252,"20750 LYONS BALD MOUNTAIN RD ,SONORA,CA,95370",1041
120.356,37.999771,"20791 LYONS BALD MOUNTAIN RD ,SONORA,CA,95370",1042
120.35381,38.001629,"20895 LYONS BALD MOUNTAIN RD ,SONORA,CA,95370",1043
120.37558,37.989796,"535 E BALD MOUNTAIN RD ,SONORA,CA,95370",1044
120.37676,37.988953,"565 E OAKSIDE DR ,SONORA,CA,95370",1045
120.37527,37.987888,"424 E JACKSON ST ,SONORA,CA,95370",1046
120.37129,37.988541,"777 E JACKSON ST ,SONORA,CA,95370",1047
120.23529,38.037903,"22935 BLACK OAK DR ,TWAIN HARTE,CA,95383",1048
120.2346,38.035374,"22819 MINERS AVE ,TWAIN HARTE,CA,95383",1049
120.22914,38.037457,"22875 BLACK HAWK DR ,TWAIN HARTE,CA,95383",1050
120.39122,37.916637,"11601 ALGERINE RD ,JAMESTOWN,CA,95327",1051
120.40347,37.96743,"19069 NORTH DR ,JAMESTOWN,CA,95327",1052
120.40498,37.960613,"18725 STATE HIGHWAY 108 85,JAMESTOWN,CA,95327",1053
120.40018,37.959221,"18717 MILL VILLA RD 313,JAMESTOWN,CA,95327",1054
120.40157,37.959656,"18717 MILL VILLA RD 415,JAMESTOWN,CA,95327",1055
120.40064,37.959595,"18717 MILL VILLA RD 314,JAMESTOWN,CA,95327",1056
120.40129,37.959885,"18717 MILL VILLA RD 434,JAMESTOWN,CA,95327",1057
120.40149,37.958981,"18717 MILL VILLA RD 423,JAMESTOWN,CA,95327",1058
120.39921,37.957596,"18717 MILL VILLA RD 621,JAMESTOWN,CA,95327",1059
120.42308,37.90826,"15600 EGAN RD ,JAMESTOWN,CA,95327",1060
120.32359,37.971062,"19249 ROCKRIDGE WAY ,SONORA,CA,95370",1061
120.32653,37.970112,"19132 SUNNY CIR ,SONORA,CA,95370",1062
120.37605,37.873108,"13690 LONE BEND RD ,JAMESTOWN,CA,95327",1063
120.4077,37.876812,"10950 GOLDEN HORSESHOE RD ,JAMESTOWN,CA,95327",1064
120.23409,37.8246,"11128 MERRELL RD ,GROVELAND,CA,95321",1065
120.12155,37.799446,"9720 SMITH STATION RD ,GROVELAND,CA,95321",1066
120.12112,37.803246,"23633 ROCK HAMMER RD ,,CA,95321",1067
120.12835,37.801449,"9817 SHORT LINE RD ,GROVELAND,CA,95321",1068
120.15112,37.831051,"11445 BIG CREEK SHAFT RD ,GROVELAND,CA,95321",1069
120.22755,37.825699,"18929 VERNAL DR ,GROVELAND,CA,95321",1070
120.18874,37.838528,"20590 MORGAN DR ,GROVELAND,CA,95321",1071
120.18514,37.838844,"20770 MORGAN DR ,GROVELAND,CA,95321",1072
120.18085,37.836926,"20965 MORGAN DR ,GROVELAND,CA,95321",1073
120.18548,37.834103,"20708 WHITE GULCH RD ,GROVELAND,CA,95321",1074
120.18196,37.834949,"21093 MORGAN DR ,GROVELAND,CA,95321",1075
120.17698,37.837379,"21028 MORGAN DR ,GROVELAND,CA,95321",1076
120.34573,37.723343,"5476 ARBOLADA DR ,LA GRANGE,CA,95329",1077
120.27064,38.016731,"21769 ROGUE RIVER DR ,SONORA,CA,95370",1078
120.26823,38.016739,"21794 CRYSTAL LAKE DR ,SONORA,CA,95370",1079
120.27129,38.015026,"16964 W AMERICAN RIVER DR ,SONORA,CA,95370",1080
120.27121,38.014755,"16985 W AMERICAN RIVER DR ,SONORA,CA,95370",1081
120.27101,38.013756,"21487 EEL RIVER DR ,SONORA,CA,95370",1082
120.2714,38.013859,"21472 EEL RIVER DR ,SONORA,CA,95370",1083
120.26627,38.015766,"21665 WASATCH MOUNTAIN RD ,SONORA,CA,95370",1084
120.2671,38.014355,"21625 CRYSTAL LAKE DR ,SONORA,CA,95370",1085
120.27003,38.024551,"22086 CRYSTAL FALLS DR ,SONORA,CA,95370",1086
120.26966,38.02372,"22101 CRYSTAL FALLS DR ,SONORA,CA,95370",1087
120.26852,38.023041,"22091 FEATHER RIVER DR ,SONORA,CA,95370",1088
120.26298,38.030647,"22463 LONGEWAY RD ,SONORA,CA,95370",1089
120.26365,38.03056,"22454 LONGEWAY RD ,SONORA,CA,95370",1090
120.26637,38.030235,"22483 COLORADO RIVER DR SOUT,SONORA,CA,95370",1091
120.26677,38.030327,"22470 COLORADO RIVER DR ,SONORA,CA,95370",1092
120.26049,38.030972,"22510 W RHINE RIVER DR ,SONORA,CA,95370",1093
120.25883,38.031792,"22534 E RHINE RIVER DR ,SONORA,CA,95370",1094
120.26311,38.030396,"22432 LONGEWAY RD ,SONORA,CA,95370",1095
120.26034,38.027843,"17380 SMOKEY RIVER DR ,SONORA,CA,95370",1096
120.25835,38.028519,"17485 SMOKEY RIVER DR ,SONORA,CA,95370",1097
120.26133,38.02795,"17350 MOUNT EVEREST CT ,SONORA,CA,95370",1098
120.20597,38.053638,"23823 HILLTOP CIR ,TWAIN HARTE,CA,95383",1099
120.20603,38.054592,"23864 HILLTOP CIR ,TWAIN HARTE,CA,95383",1100
120.20355,38.055843,"23865 LEISURE DR ,TWAIN HARTE,CA,95383",1101
120.32677,37.970924,"19189 SUNNY CIR ,SONORA,CA,95370",1102
120.26404,37.963264,"18767 CHEROKEE RD ,TUOLUMNE,CA,95379",1103
120.24313,37.953926,"18155 BODENHAMMER AVE ,TUOLUMNE,CA,95379",1104
120.24326,37.953926,"18171 BODENHAMMER AVE ,TUOLUMNE,CA,95379",1105
120.23669,37.951508,"18127 APPLE COLONY RD ,TUOLUMNE,CA,95379",1106
120.23676,37.94952,"18047 APPLE COLONY RD ,TUOLUMNE,CA,95379",1107
120.19714,38.054913,"23914 REDWOOD CT ,TWAIN HARTE,CA,95383",1108
120.38174,37.976746,"602 HIGH ST ,SONORA,CA,95370",1109
120.37979,37.976902,"10 E RESTANO WAY ,SONORA,CA,95370",1110
120.37732,37.973057,"929 NEVADA ST ,SONORA,CA,95370",1111
120.37892,37.972733,"905 S WASHINGTON ST ,SONORA,CA,95370",1112
120.35587,37.972801,"13165 SANGUINETTI RD ,SONORA,CA,95370",1113
120.34891,37.974796,"13545 MONO WAY ,SONORA,CA,95370",1114
120.34421,37.97382,"13721 TUOLUMNE RD ,SONORA,CA,95370",1115
120.39065,37.952904,"18201 BERRY LN ,SONORA,CA,95370",1116
120.24106,37.991707,"20320 TUOLUMNE RD N ,TUOLUMNE,CA,95379",1117
120.24759,37.991547,"17950 CHAPEL HILL CT ,TUOLUMNE,CA,95379",1118
120.3326,38.006306,"21154 CHRISTOPHER CIR ,SONORA,CA,95370",1119
120.32969,38.003178,"20885 CHRISTOPHER CIR ,SONORA,CA,95370",1120
120.32911,38.000134,"14333 LAKE VISTA DR ,SONORA,CA,95370",1121
120.32709,38.001598,"14565 LAKE VISTA DR ,SONORA,CA,95370",1122
120.28402,38.023849,"22133 CADENZA DR ,SONORA,CA,95370",1123
120.28493,38.022827,"22072 BELLEVIEW RD ,SONORA,CA,95370",1124
120.29234,38.01762,"21778 FORTUNA MINE RD ,SONORA,CA,95370",1125
120.28385,38.011223,"16270 HIDDEN VALLEY RD ,SONORA,CA,95370",1126
120.28903,38.011692,"16110 HIDDEN VALLEY RD ,SONORA,CA,95370",1127
120.28104,38.017822,"21811 BELLEVIEW RD ,SONORA,CA,95370",1128
120.28133,38.013248,"21550 FERN LN ,SONORA,CA,95370",1129
120.28083,38.012745,"16430 CREEKSIDE DR ,SONORA,CA,95370",1130
120.28674,38.014339,"21623 BELLVIEW CREEK RD ,SONORA,CA,95370",1131
120.28657,38.015244,"21678 BELLVIEW CREEK RD ,SONORA,CA,95370",1132
120.28656,38.014702,"21651 BELLVIEW CREEK RD ,SONORA,CA,95370",1133
120.28361,38.016483,"21695 WATER OAK DR ,SONORA,CA,95370",1134
120.28156,38.017422,"16384 ACORN DR ,SONORA,CA,95370",1135
120.28089,37.956905,"18470 COYOTE MEADOW RD ,SONORA,CA,95370",1136
120.28262,37.948532,"16440 VERGUS RD ,SONORA,CA,95370",1137
120.28156,37.952347,"18191 WOODHAM CARNE RD ,SONORA,CA,95370",1138
120.23386,37.826153,"11231 MERRELL RD ,GROVELAND,CA,95321",1139
120.17894,37.834881,"21071 MORGAN DR ,GROVELAND,CA,95321",1140
120.26308,38.029488,"17246 SMOKEY RIVER DR ,SONORA,CA,95370",1141
120.26666,38.02858,"17121 SMOKEY RIVER DR ,SONORA,CA,95370",1142
120.26285,38.028191,"17297 MOUNT EVEREST CT ,SONORA,CA,95370",1143
120.27001,38.008678,"21260 AMERICAN RIVER DR ,SONORA,CA,95370",1144
120.26982,38.008381,"21275 AMERICAN RIVER DR ,SONORA,CA,95370",1145
120.26991,38.008396,"21269 AMERICAN RIVER DR ,SONORA,CA,95370",1146
120.26809,38.018604,"21911 RUSSIAN RIVER DR ,SONORA,CA,95370",1147
120.26874,38.019302,"21886 RUSSIAN RIVER DR ,SONORA,CA,95370",1148
120.26978,38.022484,"21996 CRYSTAL FALLS DR ,SONORA,CA,95370",1149
120.26978,38.018951,"21862 CRYSTAL FALLS DR ,SONORA,CA,95370",1150
120.26791,38.018162,"21803 RUSSIAN RIVER DR ,SONORA,CA,95370",1151
120.26686,38.015404,"21716 WASATCH MOUNTAIN RD ,SONORA,CA,95370",1152
120.26788,38.018383,"17095 SALMON RIVER CT ,SONORA,CA,95370",1153
120.26791,38.019901,"21936 FEATHER RIVER DR ,SONORA,CA,95370",1154
120.26889,38.021248,"22010 FEATHER RIVER DR ,SONORA,CA,95370",1155
120.26854,38.021053,"21991 FEATHER RIVER DR ,SONORA,CA,95370",1156
120.27159,38.023834,"22221 CRYSTAL FALLS DRIVE WE ,SONORA,CA,95370",1157
120.27088,38.026417,"22258 CRYSTAL FALLS CT ,SONORA,CA,95370",1158
120.26952,38.023182,"22067 CRYSTAL FALLS DR WE,SONORA,CA,95370",1159
120.26978,38.020672,"21916 CRYSTAL FALLS DR WE,SONORA,CA,95370",1160
120.26944,38.020786,"21929 CRYSTAL FALLS DR WE,SONORA,CA,95370",1161
120.28564,38.01585,"21749 BELLVIEW CREEK RD ,SONORA,CA,95370",1162
120.28198,38.017056,"21731 WATER OAK DR ,SONORA,CA,95370",1163
120.30779,38.029778,"22380 CONKLIN TRL ,SONORA,CA,95370",1164
120.25948,37.997246,"20638 W WILLOW SPRINGS DR ,SOULSBYVILLE,CA,95372",1165
120.26209,37.998856,"17315 CARLOZZI DR ,SOULSBYVILLE,CA,95372",1166
120.25909,37.994644,"20464 SHERRY LN ,SOULSBYVILLE,CA,95372",1167
120.25779,38.004128,"21000 OMAN DR ,SOULSBYVILLE,CA,95372",1168
120.25202,37.997055,"20597 STEVEN CT ,SOULSBYVILLE,CA,95372",1169
120.25201,37.997417,"20660 VILES LN ,SOULSBYVILLE,CA,95372",1170
120.2525,37.994473,"20513 CHARLOTTE CT ,SOULSBYVILLE,CA,95372",1171
120.25572,38.007774,"21180 POKIE DR ,SOULSBYVILLE,CA,95372",1172
120.25643,38.007614,"21192 OMAN DR ,SOULSBYVILLE,CA,95372",1173
120.25629,38.006008,"21145 POKIE DR ,SOULSBYVILLE,CA,95372",1174
120.25584,38.008808,"21292 OMAN DR ,SOULSBYVILLE,CA,95372",1175
120.21678,37.848362,"19314 PINE MOUNTAIN DR ,GROVELAND,CA,95321",1176
120.21818,37.848263,"12422 TANNAHILL DR ,GROVELAND,CA,95321",1177
120.21685,37.848034,"19303 PINE MOUNTAIN DR ,GROVELAND,CA,95321",1178
120.2157,37.848743,"19374 PINE MOUNTAIN DR ,GROVELAND,CA,95321",1179
120.21259,37.849663,"19462 GRIZZLY CIR ,GROVELAND,CA,95321",1180
120.21267,37.848381,"19434 PINE MOUNTAIN DR ,GROVELAND,CA,95321",1181
120.23203,38.041733,"18718 MOTHER LODE DR ,TWAIN HARTE,CA,95383",1182
120.37769,37.948898,"12201 VIA VISTA RD ,SONORA,CA,95370",1183
120.23328,37.952122,"18258 MOUNT EATON RD ,TUOLUMNE,CA,95379",1184
120.42294,38.047916,"23732 PARROTTS FERRY RD 41,COLUMBIA,CA,95310",1185
120.27245,37.997059,"16905 MOONLIGHT HILL RD ,SONORA,CA,95370",1186
120.3214,37.977695,"14610 MONO WAY 33,SONORA,CA,95370",1187
120.36631,37.985596,"19985 GREENLEY RD ,SONORA,CA,95370",1188
120.25312,38.029449,"22474 WILDCAT RIDGE RD ,SONORA,CA,95370",1189
120.22996,38.036572,"22835 BLACK HAWK DR ,TWAIN HARTE,CA,95383",1190
120.22727,38.035835,"18843 SEQUOIA LN ,TWAIN HARTE,CA,95383",1191
120.4043,37.957001,"11858 JUSTIN CT ,JAMESTOWN,CA,95327",1192
120.21591,37.84837,"19353 PINE MOUNTAIN DR ,GROVELAND,CA,95321",1193
120.21037,37.847,"19635 CHAMBERLAIN CT ,GROVELAND,CA,95321",1194
120.1254,38.10033,"26400 CRYSTAL RD ,LONG BARN,CA,95335",1195
120.01211,38.197735,"28295 TANAGER DR ,,CA,95375",1196
120.37744,37.984634,"440 MORNING STAR CT ,SONORA,CA,95370",1197
120.13502,38.09137,"25917 SCENIC DR ,,CA,95335",1198
120.01688,38.196842,"31722 QUAIL DR ,STRAWBERRY,CA,95375",1199
120.01203,38.197273,"28264 TANAGER DR ,STRAWBERRY,CA,95375",1200
120.01111,38.197063,"28228 OLD STRAWBERRY DR ,STRAWBERRY,CA,95375",1201
120.01015,38.198715,"28324 TANAGER DR ,,CA,95375",1202
120.00965,38.197613,"28321 OLD STRAWBERRY DR ,STRAWBERRY,CA,95375",1203
120.00957,38.197395,"28350 RIVER DR ,STRAWBERRY,CA,95375",1204
120.00774,38.198189,"28397 RIVER DR ,STRAWBERRY,CA,95375",1205
120.00922,38.200134,"28534 GEORGE S DR ,,CA,95375",1206
120.00818,38.201347,"28348 GEORGE S DR ,,CA,95375",1207
120.00711,38.200573,"28468 GEORGE S DR ,,CA,95375",1208
120.00928,38.20015,"28457 GEORGE S DR ,,CA,95375",1209
120.39145,38.019318,"21885 SAWMILL FLAT RD ,SONORA,CA,95370",1210
120.40595,37.995224,"10999 FAUN CT ,SONORA,CA,95370",1211
120.40392,37.993965,"20490 QUAIL HOLLOW CT ,SONORA,CA,95370",1212
120.40787,37.990658,"10906 RACETRACK RD ,SONORA,CA,95370",1213
120.40761,37.991226,"20303 NASHUA RD ,SONORA,CA,95370",1214
120.40541,37.992378,"20395 NASHUA RD ,SONORA,CA,95370",1215
120.40723,37.991573,"20316 NASHUA RD ,SONORA,CA,95370",1216
120.40609,37.993732,"20455 NASHUA RD ,SONORA,CA,95370",1217
120.40798,37.992901,"10922 BELMONT DR ,SONORA,CA,95370",1218
120.4069,37.994511,"20500 NASHUA RD ,SONORA,CA,95370",1219
120.40677,37.994953,"20525 NASHUA RD ,SONORA,CA,95370",1220
120.39826,38.020943,"11438 COLUMBIA VILLAGE DR ,SONORA,CA,95370",1221
120.41004,37.994957,"10824 ROBINWOOD LN ,SONORA,CA,95370",1222
120.41004,37.994682,"10855 ROBINWOOD LN ,SONORA,CA,95370",1223
120.4204,37.996727,"10500 RATTO RD ,SONORA,CA,95370",1224
120.40904,37.98999,"20242 ROUGH AND READY TRL ,SONORA,CA,95370",1225
120.40811,37.990334,"10895 RACETRACK RD ,SONORA,CA,95370",1226
120.40712,37.990276,"20260 GIBBS DR ,SONORA,CA,95370",1227
120.31975,37.959404,"14698 TUOLUMNE RD ,SONORA,CA,95370",1228
120.37903,38.035088,"22673 SAWMILL FLAT RD ,SONORA,CA,95370",1229
120.41472,38.043579,"23225 GOLD SPRINGS DR ,COLUMBIA,CA,95310",1230
120.4046,37.992977,"11065 FALLON DR ,SONORA,CA,95370",1231
120.4076,37.990707,"10926 RACETRACK RD ,SONORA,CA,95370",1232
120.40611,37.993076,"10993 BELMONT DR ,SONORA,CA,95370",1233
120.40591,37.989265,"20175 GIBBS DR ,SONORA,CA,95370",1234
120.38526,38.004456,"21043 OLD SONORA COLUMBIA RD ,SONORA,CA,95370",1235
120.383,38.000114,"20835 COLUMBIA WAY ,SONORA,CA,95370",1236
120.39457,38.000683,"20845 SARATOGA RD ,SONORA,CA,95370",1237
120.38961,38.000992,"1250 SHAWS FLAT RD ,SONORA,CA,95370",1238
120.39542,37.989094,"425 ARBONA CIR N ,SONORA,CA,95370",1239
120.39269,37.989132,"680 GOLDEN GATE DR ,SONORA,CA,95370",1240
120.25269,38.043217,"23147 HAWK LN ,TWAIN HARTE,CA,95383",1241
120.26868,37.999493,"20832 LONGEWAY RD ,,CA,95370",1242
120.27876,37.994911,"16533 SERENE ACRES DR ,SONORA,CA,95370",1243
120.31853,38.000713,"20867 LAKESIDE CT ,SONORA,CA,95370",1244
120.26833,38.001835,"17397 VALLEY OAK DR ,SONORA,CA,95370",1245
120.38377,37.987301,"37 ELKIN ST ,SONORA,CA,95370",1246
120.38062,37.986717,"186 HILLCREST DR ,SONORA,CA,95370",1247
120.37999,37.987446,"247 HILLCREST DR ,SONORA,CA,95370",1248
120.41181,37.991184,"10737 SUNSHINE HILL RD ,SONORA,CA,95370",1249
120.41102,37.990597,"10771 BUENA OAKS CT ,SONORA,CA,95370",1250
120.41457,37.990059,"10633 SUNSHINE HILL RD ,SONORA,CA,95370",1251
120.32453,37.994377,"20470 SOMMETTE DR ,SONORA,CA,95370",1252
120.3251,37.993603,"20425 MIDLAND DR ,SONORA,CA,95370",1253
120.33073,37.992435,"20378 MEADOW BROOK DR ,SONORA,CA,95370",1254
120.18642,38.065739,"20595 CHIEF FULLER WAY ,MI WUK VILLAGE,CA,95346",1255
120.1861,38.065525,"20579 CHIEF FULLER WAY ,MI WUK VILLAGE,CA,95346",1256
120.18897,38.065983,"24418 PELA RD ,MI WUK VILLAGE,CA,95346",1257
120.18951,38.064098,"24387 KIKU LN ,MI WUK VILLAGE,CA,95346",1258
120.18743,38.061993,"24259 KIKU LN ,MI WUK VILLAGE,CA,95346",1259
120.18626,38.060421,"24215 SIERRA PARK RD ,,CA,95346",1260
120.18613,38.06134,"24248 SIERRA PARK RD ,,CA,95346",1261
120.18439,38.060055,"20713 LAMA ROAD TAMALIN ,,CA,95346",1262
120.20447,38.036629,"22784 CONFIDENCE RD ,TWAIN HARTE,CA,95383",1263
120.22182,38.029362,"22382 BROKEN BOUGH LN ,TWAIN HARTE,CA,95383",1264
120.22279,38.028046,"22387 ROBIN HOOD DR ,TWAIN HARTE,CA,95383",1265
120.23708,38.041245,"23097 MARK TWAIN DR ,TWAIN HARTE,CA,95383",1266
120.23789,38.03994,"23041 MARK TWAIN DR ,TWAIN HARTE,CA,95383",1267
120.23373,38.04068,"23092 STRAUCH DR ,,CA,95383",1268
120.23132,38.041374,"18671 MOTHER LODE DR ,TWAIN HARTE,CA,95383",1269
120.23212,38.041012,"23097 N TUOLUMNE RD ,TWAIN HARTE,CA,95383",1270
120.23035,38.039635,"23052 FULLER RD ,TWAIN HARTE,CA,95383",1271
120.2291,38.041046,"23109 CRESTA DR ,TWAIN HARTE,CA,95383",1272
120.22945,38.040798,"23124 CRESTA DR ,TWAIN HARTE,CA,95383",1273
120.23547,38.038475,"22956 BLACK OAK DR ,TWAIN HARTE,CA,95383",1274
120.23515,38.038898,"22980 BLACK OAK DR ,TWAIN HARTE,CA,95383",1275
120.23693,38.039009,"22977 SIERRA DR ,TWAIN HARTE,CA,95383",1276
120.23485,38.040287,"22978 FULLER RD ,TWAIN HARTE,CA,95383",1277
120.2326,38.037884,"22935 GOLF CLUB DR ,TWAIN HARTE,CA,95383",1278
120.22813,38.038467,"22970 TWAIN HARTE DR ,TWAIN HARTE,CA,95383",1279
120.23822,38.03693,"18308 LITTLE FULLER RD ,TWAIN HARTE,CA,95383",1280
120.23721,38.037949,"22884 FULLER RD ,,CA,95383",1281
120.23788,38.037422,"22905 SIERRA DR ,TWAIN HARTE,CA,95383",1282
120.23677,38.0383,"22902 FULLER RD ,,CA,95383",1283
120.23376,38.037945,"22926 GOLF CLUB DR ,TWAIN HARTE,CA,95383",1284
120.23467,38.037251,"22882 PLACER DR ,TWAIN HARTE,CA,95383",1285
120.3903,37.952499,"11701 CAMPO SECO RD ,SONORA,CA,95370",1286
120.38812,37.953773,"11741 CAMPO SECO RD ,SONORA,CA,95370",1287
120.38976,37.950314,"18076 SLEEPY HOLLOW RD ,SONORA,CA,95370",1288
120.41313,37.919521,"16363 STENT CUT OFF RD ,JAMESTOWN,CA,95327",1289
120.4137,37.917522,"16278 JACKSONVILLE RD ,JAMESTOWN,CA,95327",1290
120.41354,37.915295,"16175 KLEIN ST ,JAMESTOWN,CA,95327",1291
120.41338,37.91819,"16269 JACKSONVILLE RD ,JAMESTOWN,CA,95327",1292
120.41437,37.914387,"16077 JACKSONVILLE RD ,JAMESTOWN,CA,95327",1293
120.41425,37.913357,"16001 JACKSONVILLE RD ,JAMESTOWN,CA,95327",1294
120.41229,37.922768,"16540 STENT CUT OFF RD ,JAMESTOWN,CA,95327",1295
120.40252,37.964767,"11159 CIRCLE DR ,JAMESTOWN,CA,95327",1296
120.40096,37.963951,"11256 CIRCLE DR ,JAMESTOWN,CA,95327",1297
120.41667,37.965298,"18887 JAMESTOWN RD ,JAMESTOWN,CA,95327",1298
120.40396,37.965946,"11084 MCKIBBON DR ,JAMESTOWN,CA,95327",1299
120.40285,37.967335,"19098 NORTH DR ,JAMESTOWN,CA,95327",1300
120.39334,38.052029,"23520 ITALIAN BAR RD ,COLUMBIA,CA,95310",1301
120.41393,38.03764,"10643 N AIRPORT RD ,COLUMBIA,CA,95310",1302
120.38968,38.044823,"23330 SAN DIEGO DITCH RD ,COLUMBIA,CA,95310",1303
120.39542,38.038242,"11480 CORK OAK LN ,COLUMBIA,CA,95310",1304
120.41859,38.005524,"21233 CRYSTAL ROCK RD ,SONORA,CA,95370",1305
120.39993,38.023464,"22121 BECKY RIVER LN ,SONORA,CA,95370",1306
120.42325,38.007004,"10221 VON KLEIBEN RD ,SONORA,CA,95370",1307
120.41839,38.010914,"10438 MOUNTAIN BROW RD ,SONORA,CA,95370",1308
120.41649,38.010841,"10564 MOUNTAIN BROW RD ,SONORA,CA,95370",1309
120.39394,38.045872,"23385 ITALIAN BAR RD ,COLUMBIA,CA,95310",1310
120.39352,38.061485,"24052 PONCE RD ,COLUMBIA,CA,95310",1311
120.42028,38.028824,"22466 S AIRPORT RD 61,SONORA,CA,95370",1312
120.41275,38.052238,"23685 MARBLE QUARRY RD 4,COLUMBIA,CA,95310",1313
120.41232,38.050842,"23685 MARBLE QUARRY RD 14,COLUMBIA,CA,95310",1314
120.41187,38.050278,"23685 MARBLE QUARRY RD 24,COLUMBIA,CA,95310",1315
120.41084,38.05035,"10860 SILVER SPRINGS DR ,COLUMBIA,CA,95310",1316
120.42161,38.047096,"23732 PARROTTS FERRY RD 17,COLUMBIA,CA,95310",1317
120.41912,38.028847,"22466 S AIRPORT RD 18,SONORA,CA,95370",1318
120.4033,38.027561,"22217 PARROTTS FERRY RD 34,SONORA,CA,95370",1319
120.42905,38.028778,"22411 LAKEVIEW HTS ,SONORA,CA,95370",1320
120.42588,38.02964,"22535 BENNETT RD ,SONORA,CA,95370",1321
120.42102,38.024143,"10331 SLATE RIM RD ,SONORA,CA,95370",1322
120.4108,38.015663,"21696 SPRINGFIELD RD ,SONORA,CA,95370",1323
120.40601,38.016953,"11000 UNION HILL RD ,SONORA,CA,95370",1324
120.40655,38.019997,"21851 SHAWS FLAT RD ,SONORA,CA,95370",1325
120.39787,38.01907,"21886 PARROTTS FERRY RD ,SONORA,CA,95370",1326
120.39776,38.015343,"21661 BRIAN LN ,SONORA,CA,95370",1327
120.41161,38.012379,"10730 HIGHWAY 49 ,SONORA,CA,95370",1328
120.40482,38.01524,"21563 SHAWS FLAT RD ,SONORA,CA,95370",1329
120.41167,38.006985,"10765 MOUNTAIN BROW RD ,SONORA,CA,95370",1330
120.40015,37.964211,"11256 MCKIBBON DR ,JAMESTOWN,CA,95327",1331
120.39806,37.961311,"18727 MILL VILLA RD ,JAMESTOWN,CA,95327",1332
120.14198,37.845238,"22608 PROSPECT HTS ,GROVELAND,CA,95321",1333
120.27444,38.011032,"21448 GREEN OAKS CT ,SONORA,CA,95370",1334
120.27612,38.010712,"21393 RIDGEVIEW DR ,SONORA,CA,95370",1335
120.2765,38.010887,"21406 RIDGEVIEW DR ,SONORA,CA,95370",1336
120.28583,38.022766,"22126 BELLEVIEW RD ,SONORA,CA,95370",1337
120.28244,38.033478,"22589 ELIZABETH LN ,SONORA,CA,95370",1338
120.28281,38.019176,"21850 BELLEVIEW RD 61,SONORA,CA,95370",1339
120.23096,37.997982,"20720 GERBER RD ,TUOLUMNE,CA,95379",1340
120.23037,37.995865,"20588 GERBER RD ,TUOLUMNE,CA,95379",1341
120.23182,37.996181,"20719 PONDEROSA WAY ,TUOLUMNE,CA,95379",1342
120.23171,37.99419,"18662 VALLEY VIEW DR ,TUOLUMNE,CA,95379",1343
120.22769,37.993942,"20624 PONDEROSA WAY ,TUOLUMNE,CA,95379",1344
120.22509,37.989017,"20209 MOON BEAM CIR ,TUOLUMNE,CA,95379",1345
120.22431,37.988579,"20200 EASTVIEW DR ,TUOLUMNE,CA,95379",1346
120.22375,37.987114,"20144 EASTVIEW DR ,TUOLUMNE,CA,95379",1347
120.22768,37.988014,"18835 EVERGREEN DR ,TUOLUMNE,CA,95379",1348
120.22434,37.987057,"20170 CANYONVIEW DR ,TUOLUMNE,CA,95379",1349
120.22146,37.986916,"20062 CHAPEL DR ,TUOLUMNE,CA,95379",1350
120.22751,38.00021,"19750 TUOLUMNE RD N ,TUOLUMNE,CA,95379",1351
120.2523,37.980972,"17809 RUBY RD ,TUOLUMNE,CA,95379",1352
120.41534,37.941498,"17556 TWIN OAK DR ,JAMESTOWN,CA,95327",1353
120.23029,37.839146,"18752 MAIN ST ,GROVELAND,CA,95321",1354
120.256,37.825356,"17630 STATE HWY 120 ,GROVELAND,CA,95321",1355
120.25613,37.827061,"11209 BIG OAK RD ,BIG OAK FLAT,CA,95305",1356
120.23022,37.969238,"18701 BUCHANAN RD ,TUOLUMNE,CA,95379",1357
120.23533,37.966293,"18870 CARTER ST ,TUOLUMNE,CA,95379",1358
120.23468,37.964718,"18843 MADRONE ST ,TUOLUMNE,CA,95379",1359
120.26839,38.001526,"17170 VALLEY OAK DR ,SONORA,CA,95370",1360
120.27126,38.001678,"17276 VALLEY OAK DR ,SONORA,CA,95370",1361
120.27073,38.001484,"17245 VALLEY OAK DR ,SONORA,CA,95370",1362
120.26697,38.001705,"20960 SPANISH GRANT DR ,SONORA,CA,95370",1363
120.29904,37.998024,"15750 RIDGEWOOD DR ,SONORA,CA,95370",1364
120.30833,37.99802,"15295 RIDGEWOOD CT ,SONORA,CA,95370",1365
120.28145,38.002277,"16525 PARKRIDGE AVE ,SONORA,CA,95370",1366
120.29108,38.000584,"20850 WOODRIDGE WAY ,SONORA,CA,95370",1367
120.28261,38.003834,"16323 MOURNING DOVE CT ,SONORA,CA,95370",1368
120.28736,38.004929,"16262 STINE CT ,SONORA,CA,95370",1369
120.27006,37.993374,"16969 CLOUDS REST RD ,SOULSBYVILLE,CA,95372",1370
120.44008,37.991879,"9562 HIGHWAY 49 ,SONORA,CA,95370",1371
120.44706,37.997662,"9080 FRAGUERO RD ,SONORA,CA,95370",1372
120.45718,38.001545,"8700 FRAGUERO RD ,SONORA,CA,95370",1373
120.46376,37.99477,"20501 TUTTLETOWN RD ,SONORA,CA,95370",1374
120.4759,37.997948,"20743 JACKASS HILL RD ,SONORA,CA,95370",1375
120.47578,37.993565,"20555 JACKASS HILL RD ,SONORA,CA,95370",1376
120.46253,37.975876,"8592 FRENCH FLAT RD ,JAMESTOWN,CA,95327",1377
120.22551,38.037182,"22879 EAST AVE ,TWAIN HARTE,CA,95383",1378
120.25566,38.018951,"17617 SCENIC HEIGHTS CT ,SONORA,CA,95370",1379
120.22569,38.041416,"18804 TIFFENI DR ,TWAIN HARTE,CA,95383",1380
120.22454,38.043571,"19000 RYAN CT ,TWAIN HARTE,CA,95383",1381
120.22343,38.04211,"18885 TIFFENI DR ,TWAIN HARTE,CA,95383",1382
120.22223,38.040535,"19091 TIFFENI DR ,TWAIN HARTE,CA,95383",1383
120.25735,38.015965,"21755 LONGEWAY RD ,SONORA,CA,95370",1384
120.22535,38.038437,"22912 VANTAGE POINT DR ,TWAIN HARTE,CA,95383",1385
120.22314,38.043446,"23253 KOREY CT ,TWAIN HARTE,CA,95383",1386
120.22318,38.043175,"23300 KOREY CT ,TWAIN HARTE,CA,95383",1387
120.22906,38.044346,"23228 CRESTA DR ,TWAIN HARTE,CA,95383",1388
120.22966,38.044666,"23279 JOAQUIN GULLY RD ,,CA,95383",1389
120.22905,38.045017,"23316 MOUNTAIN DR ,TWAIN HARTE,CA,95383",1390
120.23246,38.041058,"23110 TUOLUMNE DR ,TWAIN HARTE,CA,95383",1391
120.23296,38.040722,"23093 STRAUCH DR ,TWAIN HARTE,CA,95383",1392
120.23365,38.0438,"23240 STRAUCH DR ,TWAIN HARTE,CA,95383",1393
120.23209,38.042423,"18649 COLUMBIA DR ,TWAIN HARTE,CA,95383",1394
120.22751,38.043137,"18844 HOLLY DR ,TWAIN HARTE,CA,95383",1395
120.21153,37.851677,"19592 CHAFFEE CIR ,GROVELAND,CA,95321",1396
120.20814,37.850525,"19585 PLEASANTVIEW DR ,GROVELAND,CA,95321",1397
120.21084,37.850334,"19505 PLEASANTVIEW DR ,GROVELAND,CA,95321",1398
120.35199,37.945457,"13766 KINCAID FLAT RD ,SONORA,CA,95370",1399
120.29096,37.905991,"15589 WARDS FERRY RD ,SONORA,CA,95370",1400
120.34943,37.906158,"13550 ALGERINE WARDS FERRY RD R,SONORA,CA,95370",1401
120.21233,37.84837,"19439 PINE MOUNTAIN DR ,GROVELAND,CA,95321",1402
120.2154,37.851013,"19421 REID CIR ,GROVELAND,CA,95321",1403
120.21786,37.85577,"19302 OAK GROVE CIR ,GROVELAND,CA,95321",1404
120.21738,37.855869,"19322 OAK GROVE CIR ,GROVELAND,CA,95321",1405
120.21267,37.855251,"12809 MUELLER DR ,GROVELAND,CA,95321",1406
120.20837,37.852055,"12610 MOUNT JEFFERSON ST ,GROVELAND,CA,95321",1407
120.20396,37.854099,"12749 MOUNT JEFFERSON ST ,GROVELAND,CA,95321",1408
120.22084,37.853867,"12699 JUNIPERO SERRA WAY ,GROVELAND,CA,95321",1409
120.22034,37.853287,"12719 JUNIPERO SERRA WAY ,GROVELAND,CA,95321",1410
120.21977,37.853016,"12741 JUNIPERO SERRA WAY ,GROVELAND,CA,95321",1411
120.20479,37.856026,"12811 MOON LIGHT CT ,GROVELAND,CA,95321",1412
120.21476,37.845379,"19522 ELDER LN ,GROVELAND,CA,95321",1413
120.24946,38.023846,"17875 LUCKY STRIKE TRL ,SONORA,CA,95370",1414
120.22266,38.018364,"21837 CEDAR SPRINGS RD ,TWAIN HARTE,CA,95383",1415
120.37665,37.973995,"201 HOSPITAL RD ,SONORA,CA,95370",1416
120.35118,37.951157,"18254 OLD WARDS FERRY RD ,SONORA,CA,95370",1417
120.39045,37.948353,"17922 CAMPBELL FLAT RD ,SONORA,CA,95370",1418
120.23757,37.963764,"18785 PINE ST ,,CA,95379",1419
120.23606,37.963707,"18785 CARTER ST ,TUOLUMNE,CA,95379",1420
120.23606,37.960674,"18617 CARTER ST ,TUOLUMNE,CA,95379",1421
119.9763,38.231644,"33998 LELAND MEADOW RD ,,CA,95375",1422
120.03187,38.179897,"30851 OLD STRAWBERRY RD ,,CA,95335",1423
120.03448,38.178555,"30777 OLD STRAWBERRY RD ,LONG BARN,CA,95335",1424
120.03468,38.1791,"30788 OLD STRAWBERRY RD ,LONG BARN,CA,95335",1425
120.0359,38.175907,"30633 OLD STRAWBERRY RD ,LONG BARN,CA,95335",1426
120.03796,38.174191,"30530 OLD STRAWBERRY RD ,LONG BARN,CA,95335",1427
120.03697,38.174149,"30541 OLD STRAWBERRY RD ,LONG BARN,CA,95335",1428
120.0012,38.200924,"28635 HERRING CREEK LN ,STRAWBERRY,CA,95375",1429
120.38107,37.962261,"18382 AVENIDA BONITA N ,SONORA,CA,95370",1430
120.3818,37.956673,"18311 AVENIDA BONITA ,SONORA,CA,95370",1431
120.37749,37.954994,"18383 CORTE DEL MONTANA ,SONORA,CA,95370",1432
120.36189,37.959114,"18534 OLD WARDS FERRY RD ,SONORA,CA,95370",1433
120.34593,37.96471,"13810 MARK TRL ,SONORA,CA,95370",1434
120.33334,37.961838,"14200 KELLY LOOP ,SONORA,CA,95370",1435
120.33859,37.96376,"18870 LAMBERT LAKE RD ,SONORA,CA,95370",1436
120.34044,37.965557,"13978 FLORENCE WAY ,SONORA,CA,95370",1437
120.45041,37.969025,"19294 RAWHIDE RD ,SONORA,CA,95370",1438
120.44017,37.974674,"19357 ROCKY RD ,SONORA,CA,95370",1439
120.43278,37.957638,"9871 PULPIT ROCK RD ,,CA,95327",1440
120.45879,37.970051,"8001 FRENCH FLAT RD ,JAMESTOWN,CA,95327",1441
120.4669,37.970196,"8209 FRENCH FLAT RD ,JAMESTOWN,CA,95327",1442
120.45741,37.969326,"8880 FRENCH FLAT RD ,JAMESTOWN,CA,95327",1443
120.20374,37.820995,"20111 OLD HIGHWAY 120 ,GROVELAND,CA,95321",1444
120.20215,37.80584,"19755 INCENSE CEDAR TRL ,,CA,95321",1445
120.12682,37.845066,"22988 KINGS RD ,GROVELAND,CA,95321",1446
120.16182,37.835579,"11800 BIG CREEK SHAFT RD ,GROVELAND,CA,95321",1447
120.13232,37.818314,"23003 ELMORE RD ,GROVELAND,CA,95321",1448
120.12242,37.794842,"9045 SMITH STATION RD ,GROVELAND,CA,95321",1449
120.12755,37.806038,"10031 SHORT LINE RD ,GROVELAND,CA,95321",1450
120.14848,37.796982,"22349 HELLS HOLLOW RD ,GROVELAND,CA,95321",1451
120.15049,37.797756,"22326 HELLS HOLLOW RD ,GROVELAND,CA,95321",1452
120.23227,37.997604,"20735 PONDEROSA WAY ,TUOLUMNE,CA,95379",1453
120.24651,37.988018,"20150 TUOLUMNE RD N ,TUOLUMNE,CA,95379",1454
120.41328,37.986382,"10699 WHISKEY CRK ,SONORA,CA,95370",1455
120.29218,37.99823,"15990 RIDGEWOOD DR ,SONORA,CA,95370",1456
120.28172,38.001045,"16560 PARKRIDGE AVE ,SONORA,CA,95370",1457
120.38779,37.982819,"305 W JACKSON ST ,SONORA,CA,95370",1458
120.38065,37.980106,"74 WILLIAM ST ,SONORA,CA,95370",1459
120.37718,37.980553,"555 CORKY LN ,SONORA,CA,95370",1460
120.04916,38.164051,"26630 OLD MONO RD ,COLD SPRINGS,CA,95335",1461
120.07116,38.145061,"28905 SNOWHITE RIDGE DR E ,,CA,95335",1462
120.4042,37.991196,"11126 RACETRACK RD ,SONORA,CA,95370",1463
120.24693,38.048851,"23387 TANAGER DR ,TWAIN HARTE,CA,95383",1464
120.34811,37.989353,"20161 HIGH MEADOW DR ,SONORA,CA,95370",1465
120.36214,37.991295,"20324 EATON CT ,SONORA,CA,95370",1466
120.25482,38.01178,"21424 HUNTS RD ,SONORA,CA,95370",1467
120.24934,38.026012,"17868 GOOD SHEPHERD DR ,SONORA,CA,95370",1468
120.43329,37.992874,"20400 BUCKEYE MINE RD ,SONORA,CA,95370",1469
120.23534,38.052971,"18518 STORY LN ,TWAIN HARTE,CA,95383",1470
120.40355,38.008396,"21270 SHAWS FLAT RD ,SONORA,CA,95370",1471
120.40318,38.008732,"21271 SHAWS FLAT RD ,SONORA,CA,95370",1472
120.21407,38.052418,"23770 CONFIDENCE-SOUTH FRK ,,CA,95383",1473
120.21336,38.051235,"19429 MICHIGAN DR ,TWAIN HARTE,CA,95383",1474
120.21192,38.05241,"19533 MICHIGAN DR ,TWAIN HARTE,CA,95383",1475
120.20988,38.054508,"19551 WANITA LN ,TWAIN HARTE,CA,95383",1476
120.2215,38.048302,"23511 ONTARIO DR ,TWAIN HARTE,CA,95383",1477
120.21896,38.049416,"19205 SUPERIOR DR ,TWAIN HARTE,CA,95383",1478
120.21818,38.051041,"19210 SUPERIOR DR ,TWAIN HARTE,CA,95383",1479
120.21931,38.047623,"19140 HURON DR ,TWAIN HARTE,CA,95383",1480
120.30008,37.977665,"19571 SERRANO RD ,SONORA,CA,95370",1481
120.31947,37.977566,"14830 MONO WAY ,SONORA,CA,95370",1482
120.31647,37.979057,"19596 MONO WAY ,SONORA,CA,95370",1483
120.31169,37.97934,"19646 HIGHWAY 108 ,SONORA,CA,95370",1484
120.31034,37.977142,"15170 CAVALIERI RD ,SONORA,CA,95370",1485
120.31042,37.976604,"15141 CAVALIERI RD ,SONORA,CA,95370",1486
120.30521,37.979755,"19696 SERRANO RD ,SONORA,CA,95370",1487
120.30257,37.986382,"20043 EL RAY LN ,SONORA,CA,95370",1488
120.30339,37.983574,"15518 JENNESS RD ,SONORA,CA,95370",1489
120.28082,37.989849,"20285 S SUNSHINE RD ,SONORA,CA,95370",1490
120.29041,37.986286,"20086 BARNWOOD CT ,SONORA,CA,95370",1491
120.28624,37.976223,"16060 CURTIS CT ,SONORA,CA,95370",1492
120.26842,37.989906,"20201 MOYLE RD ,SONORA,CA,95370",1493
120.18048,37.819283,"10955 BONEYARD RD ,,CA,95321",1494
120.20422,37.854298,"12758 MOUNT JEFFERSON ST ,GROVELAND,CA,95321",1495
120.20362,37.859795,"19955 DEERBRUSH CT ,GROVELAND,CA,95321",1496
120.36805,37.977993,"12720 ROBINIA CIR 43,SONORA,CA,95370",1497
120.3307,37.692841,"3790 CASTILLO WAY ,LA GRANGE,CA,95329",1498
120.32558,37.690948,"3686 ARBOLADA DR ,LA GRANGE,CA,95329",1499
120.27709,38.065334,"16619 ESTRALITA DR ,SONORA,CA,95370",1500
120.28106,38.063992,"16500 HILLSIDE DR ,SONORA,CA,95370",1501
120.27996,38.067066,"16665 MADRONE CIR ,SONORA,CA,95370",1502
120.27797,38.066498,"16628 MADRONE CIR ,SONORA,CA,95370",1503
120.27785,38.066223,"16625 MADRONE CIR ,SONORA,CA,95370",1504
120.27539,38.065601,"16701 KELTZ WAY ,SONORA,CA,95370",1505
120.27351,38.067055,"16878 ESTRALITA DR ,SONORA,CA,95370",1506
120.27325,38.066875,"16879 ESTRALITA DR ,SONORA,CA,95370",1507
120.27252,38.064732,"16833 E BROOKSIDE DR ,SONORA,CA,95370",1508
120.27004,38.064545,"16960 E BROOKSIDE DR ,SONORA,CA,95370",1509
120.26998,38.066086,"24474 QUARTER HORSE DR ,SONORA,CA,95370",1510
120.27053,38.064812,"24415 QUARTER HORSE DR ,SONORA,CA,95370",1511
120.26901,38.066265,"24495 QUARTER HORSE DR ,SONORA,CA,95370",1512
120.26657,38.065899,"17076 CARRIAGE RD ,SONORA,CA,95370",1513
120.22163,37.852688,"19118 DYER CT ,GROVELAND,CA,95321",1514
120.21647,37.851128,"19360 REID CIR ,GROVELAND,CA,95321",1515
120.21476,37.864197,"19426 FERRETTI RD ,GROVELAND,CA,95321",1516
120.21078,37.862896,"19516 FERRETTI RD ,GROVELAND,CA,95321",1517
120.2091,37.861713,"19574 COTTONWOOD ST ,GROVELAND,CA,95321",1518
120.20467,37.862282,"19724 FERRETTI RD ,GROVELAND,CA,95321",1519
120.22654,37.856651,"19264 FERRETTI RD ,GROVELAND,CA,95321",1520
120.22085,37.858883,"19051 JIMMIE BELL ST ,GROVELAND,CA,95321",1521
120.22688,37.858917,"19289 FERRETTI RD ,GROVELAND,CA,95321",1522
120.22261,37.861881,"19092 DIGGER PINE ST ,GROVELAND,CA,95321",1523
120.17926,37.85738,"12899 GREEN VALLEY CIR ,GROVELAND,CA,95321",1524
120.18552,37.856941,"20734 RISING HILL CIR ,GROVELAND,CA,95321",1525
120.18072,37.851246,"12715 CRESTHAVEN DR ,GROVELAND,CA,95321",1526
120.18177,37.850929,"12685 EAGLE CT ,GROVELAND,CA,95321",1527
120.18319,37.848427,"20842 BIG FOOT CIR ,GROVELAND,CA,95321",1528
120.18275,37.847191,"12325 ALPS CT ,GROVELAND,CA,95321",1529
120.16948,37.865269,"13360 CLIFFTON WAY ,GROVELAND,CA,95321",1530
120.16993,37.864449,"13330 CLIFFTON WAY ,GROVELAND,CA,95321",1531
120.17985,37.865604,"21080 HEMLOCK ST ,GROVELAND,CA,95321",1532
120.48248,37.97081,"7725 FRENCH FLAT RD ,JAMESTOWN,CA,95327",1533
120.47262,37.966888,"8111 DANTE DR ,JAMESTOWN,CA,95327",1534
120.44466,37.934822,"17191 CHICKEN RANCH RD ,JAMESTOWN,CA,95327",1535
120.44754,37.938766,"17351 JEANESE DR ,JAMESTOWN,CA,95327",1536
120.45449,37.904861,"8931 MONTEZUMA RD ,JAMESTOWN,CA,95327",1537
120.44392,37.936462,"17275 MARGARET DR ,JAMESTOWN,CA,95327",1538
120.44421,37.936275,"17270 MARGARET DR ,JAMESTOWN,CA,95327",1539
120.44522,37.936813,"17221 JEANESE DR ,JAMESTOWN,CA,95327",1540
120.44564,37.936794,"17232 JEANESE DR ,JAMESTOWN,CA,95327",1541
120.451,37.931976,"16971 CHICKEN RANCH RD ,JAMESTOWN,CA,95327",1542
120.45317,37.92799,"16760 CHICKEN RANCH RD ,JAMESTOWN,CA,95327",1543
120.45026,37.964802,"19224 RAWHIDE RD ,JAMESTOWN,CA,95327",1544
120.43244,37.957066,"9891 PULPIT ROCK RD ,JAMESTOWN,CA,95327",1545
120.4324,37.9575,"9880 PULPIT ROCK RD ,JAMESTOWN,CA,95327",1546
120.45159,37.934753,"17233 TABLE MOUNTAIN RD ,JAMESTOWN,CA,95327",1547
120.45101,37.933254,"17045 TABLE MOUNTAIN RD ,JAMESTOWN,CA,95327",1548
120.45158,37.935558,"17272 TABLE MOUNTAIN RD ,JAMESTOWN,CA,95327",1549
120.44968,37.973423,"19418 RAWHIDE RD ,SONORA,CA,95370",1550
120.44887,37.973988,"19448 RAWHIDE RD ,SONORA,CA,95370",1551
120.45478,37.939739,"17473 TABLE MOUNTAIN RD ,JAMESTOWN,CA,95327",1552
120.43502,37.967354,"18968 RAWHIDE RD ,JAMESTOWN,CA,95327",1553
120.33163,37.654301,"14365 AVENIDA CENTRAL ,LA GRANGE,CA,95329",1554
120.34921,37.710224,"13574 HOYITO CIR ,LA GRANGE,CA,95329",1555
120.33179,37.696541,"3975 CASTILLO WAY ,LA GRANGE,CA,95329",1556
120.32915,37.695667,"3950 ARBOLADA DR ,LA GRANGE,CA,95329",1557
120.28169,38.06506,"16452 ESTRALITA DR ,SONORA,CA,95370",1558
120.2823,38.065117,"16415 ESTRALITA DR ,SONORA,CA,95370",1559
120.27834,38.065399,"16586 ESTRALITA DR ,SONORA,CA,95370",1560
120.27539,38.065784,"16726 ESTRALITA DR ,SONORA,CA,95370",1561
120.27299,38.065281,"16796 W BROOKSIDE DR ,SONORA,CA,95370",1562
120.28338,38.064606,"24383 CANYON VIEW DR ,SONORA,CA,95370",1563
120.28082,38.063412,"16498 W BROOKSIDE DR ,SONORA,CA,95370",1564
120.27594,38.064518,"16690 HILLSIDE DR ,SONORA,CA,95370",1565
120.27602,38.063946,"16680 W BROOKSIDE DR ,SONORA,CA,95370",1566
120.27258,38.056667,"22900 HITCHING POST RD ,SONORA,CA,95370",1567
