address,lat,long,hoursOfUsableSunlightPerYear,sqFeetAvailableForSolarPanels,recommendedSolarInstallationSizeInKW,recommendedSolarInstallationSizeInSqFt
"1000 NORTH POINT ST 1102,SAN FRANCISCO,CA,94109",37.805428,122.42368,1761,1427,3.8,264.0
"13302 GARDEN BAR RD ,GRASS VALLEY,CA,95949",39.059158,121.14409,,,,
"19221 SHERMAN WAY 16,RESEDA,CA,91335",34.201118,118.55178,2001,8069,2.8,194.0
"706 CASTLE ST ,MODESTO,CA,95350",37.653679,120.9828,1652,1550,4.0,282.0
"6023 TUPELO DR ,CITRUS HEIGHTS,CA,95621",38.699047,121.32305,1779,2044,3.0,211.0
"3100 ELKHORN BLVD ,NORTH HIGHLANDS,CA,95660",38.690331,121.39459,1868,6572,2.8,194.0
"14038 LEMON VALLEY AVE ,CORONA,CA,92880",33.957092,117.5892,2000,1779,4.3,300.0
"1767 W 37TH DR ,LOS ANGELES,CA,90018",34.019482,118.31091,1917,1392,3.0,211.0
"14421 NAVAJO WAY ,MANTECA,CA,95336",37.832153,121.2165,1915,1392,2.8,194.0
"150 ALLEN AVE ,GLENDALE,CA,91201",34.161751,118.30616,1937,5462,2.8,194.0
"19231 SHERMAN WAY 42,RESEDA,CA,91335",34.201118,118.55201,2001,8069,2.8,194.0
"240 HILLCREST CT ,PLEASANT HILL,CA,94523",37.956726,122.07835,1889,4440,2.8,194.0
"51424 HWY 395 ,MAMMOTH LAKES,CA,93546",37.95723,119.11921,,,,
"5231 N ENID AVE ,AZUSA,CA,91702",34.107742,117.91436,1777,2026,4.8,335.0
"3900 MADRONA AVE ,BAKERSFIELD,CA,93307",35.243519,118.96082,,,,
"820 W 61ST ST ,LOS ANGELES,CA,90044",33.984489,118.28747,1956,1004,2.8,194.0
"7887 LAMPSON AVE 84,GARDEN GROVE,CA,92841",33.781231,117.99439,1816,916,3.3,229.0
"1550 TESORO DR ,MANTECA,CA,95337",37.777634,121.19175,1882,1903,2.8,194.0
"11460 14TH AVE ,ARMONA,CA,93202",36.306343,119.7093,1933,1110,3.3,229.0
"1265 N WILMINGTON BLVD ,WILMINGTON,CA,90744",33.788338,118.27504,1805,1779,3.0,211.0
"24236 LARKWOOD LN ,LAKE FOREST,CA,92630",33.610455,117.69846,1896,1920,3.3,229.0
"7715 ABBOT CT ,RANCHO CUCAMONGA,CA,91730",34.113792,117.59141,1879,916,4.5,317.0
"3740 ERRIS CT ,SOUTH SAN FRANCISCO,CA,94080",37.64529,122.465,1640,1427,3.0,211.0
"6015 DONNA AVE ,TARZANA,CA,91356",34.178883,118.54767,1953,2026,2.8,194.0
"1143 CERVANTES WAY ,PACIFICA,CA,94044",37.596069,122.50014,1683,1251,2.8,194.0
"7601 HWY 1 ,LITTLE RIVER,CA,95456",39.26997,123.78728,,,,
"1623 CABRILLO AVE ,TORRANCE,CA,90501",33.832699,118.31446,1823,2343,3.0,211.0
"994 LORNA ST ,CORONA,CA,92882",33.864681,117.58018,1988,2114,4.5,317.0
"2904 ROSS AVE ,RIVERBANK,CA,95367",37.731651,120.94259,1917,1920,3.5,247.0
"7078 MARSH WREN ST ,CARLSBAD,CA,92011",33.103378,117.29986,1891,1779,2.0,141.0
"3465 DUBLIN BLVD 329,DUBLIN,CA,94568",37.705605,121.8628,1909,18887,2.5,176.0
"1233 OLYMPIC DR ,MILPITAS,CA,95035",37.424271,121.8801,1876,1603,2.8,194.0
"6954 W LAKE BLVD ,TAHOMA,CA,96142",39.068859,120.13154,,,,
"4113-4117 KANSAS ST ,SAN DIEGO,CA,92104",32.75243,117.13123,1810,987,2.0,141.0
"3553 SANFORD ST ,CONCORD,CA,94520",38.000004,122.03275,1690,899,3.3,229.0
"4024 SAMUEL WAY ,EL DORADO HILLS,CA,95762",38.668285,121.01664,1884,2449,2.8,194.0
"23555 WHISPERING WINDS WAY ,MORENO VALLEY,CA,92557",33.946972,117.25152,1873,1110,3.5,247.0
"750 FULTON AVE ,SACRAMENTO,CA,95825",38.578808,121.40132,1684,916,3.3,229.0
"11723 BROOKSTONE DR ,TRUCKEE,CA,96161",39.349216,120.2094,,,,
"315 CAMINO AL BARRANCO ,LA SELVA BCH,CA,95076",36.943218,121.86147,1630,1709,3.3,229.0
"36 RANDOLPH AVE ,SOUTH SAN FRANCISCO,CA,94080",37.664536,122.40087,1573,1004,3.0,211.0
"43120 RANGER CIRCLE DR ,COARSEGOLD,CA,93614",37.202538,119.75941,,,,
"401 W HOLT BLVD ,ONTARIO,CA,91762",34.063225,117.65475,1839,1956,3.3,229.0
"1659 HAWK RIDGE PL ,ESCONDIDO,CA,92027",33.128628,117.05499,1958,1392,2.0,141.0
"2440 CYPRESS AVE ,EUREKA,CA,95503",40.765751,124.14088,1541,2378,3.3,229.0
"124 DOGWOOD CT ,HERCULES,CA,94547",38.005436,122.24976,1861,2519,2.8,194.0
"6215 WASATCH WAY ,SACRAMENTO,CA,95842",38.67981,121.34153,1836,1885,2.8,194.0
"2030 N PACIFIC AVE ,SANTA CRUZ,CA,95060",36.977905,122.02693,1725,5303,3.0,211.0
"6011 SUCRE PL ,BAKERSFIELD,CA,93306",35.408409,118.88187,,,,
"811 E 90TH ST ,LOS ANGELES,CA,90002",33.954849,118.26055,1806,1163,3.3,229.0
"540 UNIVERSITY ST ,HEALDSBURG,CA,95448",38.614834,122.86307,1870,846,2.8,194.0
"22275 HARNESS LN ,RED BLUFF,CA,96080",40.249374,122.20844,,,,
"5085 LAUREL DR ,CONCORD,CA,94521",37.966728,121.96512,1785,758,3.0,211.0
"3368 MONIQUE LN ,SPRING VALLEY,CA,91977",32.742596,116.99665,2038,2748,1.8,123.0
"7113 CLAIRE AVE ,RESEDA,CA,91335",34.198975,118.55038,1988,775,3.0,211.0
